[
  {
    "name": "Easingwold Market Place",
    "lat": 54.121621,
    "lon": -1.192004,
    "sequence": 1
  },
  {
    "name": "Long Street",
    "lat": 54.121028,
    "lon": -1.196361,
    "sequence": 2
  },
  {
    "name": "opp Primary School",
    "lat": 54.124349,
    "lon": -1.200963,
    "sequence": 3
  },
  {
    "name": "opp Westfield",
    "lat": 54.125879,
    "lon": -1.202678,
    "sequence": 4
  },
  {
    "name": "Sycamore Grange",
    "lat": 54.167878,
    "lon": -1.247287,
    "sequence": 5
  },
  {
    "name": "Birdforth House Farm",
    "lat": 54.176384,
    "lon": -1.258025,
    "sequence": 6
  },
  {
    "name": "Hutton Sessay lane end",
    "lat": 54.182141,
    "lon": -1.261738,
    "sequence": 7
  },
  {
    "name": "Thirkleby Park",
    "lat": 54.204426,
    "lon": -1.294118,
    "sequence": 8
  },
  {
    "name": "Bagby Lane",
    "lat": 54.209033,
    "lon": -1.301184,
    "sequence": 9
  },
  {
    "name": "York Road",
    "lat": 54.230251,
    "lon": -1.330939,
    "sequence": 10
  },
  {
    "name": "Thirsk Market Place",
    "lat": 54.23278,
    "lon": -1.343079,
    "sequence": 11
  },
  {
    "name": "Tesco Store",
    "lat": 54.231054,
    "lon": -1.346251,
    "sequence": 12
  },
  {
    "name": "Racecourse",
    "lat": 54.230906,
    "lon": -1.352236,
    "sequence": 13
  },
  {
    "name": "Racecourse",
    "lat": 54.230339,
    "lon": -1.355451,
    "sequence": 14
  },
  {
    "name": "Racecourse",
    "lat": 54.22978,
    "lon": -1.358405,
    "sequence": 15
  },
  {
    "name": "Thirsk Railway Station",
    "lat": 54.22766,
    "lon": -1.370618,
    "sequence": 16
  },
  {
    "name": "Carlton Close",
    "lat": 54.227829,
    "lon": -1.375355,
    "sequence": 17
  },
  {
    "name": "Manfield Terrace",
    "lat": 54.227543,
    "lon": -1.379163,
    "sequence": 18
  },
  {
    "name": "County Primary School",
    "lat": 54.224671,
    "lon": -1.392413,
    "sequence": 19
  },
  {
    "name": "Dog And Gun",
    "lat": 54.223046,
    "lon": -1.396209,
    "sequence": 20
  },
  {
    "name": "Busby Stoop Roundabout",
    "lat": 54.222071,
    "lon": -1.413555,
    "sequence": 21
  },
  {
    "name": "Busby Stoop Inn",
    "lat": 54.222126,
    "lon": -1.413753,
    "sequence": 22
  },
  {
    "name": "St Lawrence's Church",
    "lat": 54.223179,
    "lon": -1.395931,
    "sequence": 23
  },
  {
    "name": "County Primary School",
    "lat": 54.225092,
    "lon": -1.392069,
    "sequence": 24
  },
  {
    "name": "Manfield Terrace",
    "lat": 54.227624,
    "lon": -1.379331,
    "sequence": 25
  },
  {
    "name": "Carlton Close",
    "lat": 54.227868,
    "lon": -1.37606,
    "sequence": 26
  },
  {
    "name": "Railway Station",
    "lat": 54.227847,
    "lon": -1.370231,
    "sequence": 27
  },
  {
    "name": "Racecourse",
    "lat": 54.229338,
    "lon": -1.361572,
    "sequence": 28
  },
  {
    "name": "Racecourse",
    "lat": 54.230631,
    "lon": -1.354511,
    "sequence": 29
  },
  {
    "name": "Racecourse",
    "lat": 54.230987,
    "lon": -1.352296,
    "sequence": 30
  },
  {
    "name": "Thirsk Market Place",
    "lat": 54.23278,
    "lon": -1.343079,
    "sequence": 31
  },
  {
    "name": "Hambleton Drive",
    "lat": 54.23473,
    "lon": -1.338093,
    "sequence": 32
  },
  {
    "name": "York Road",
    "lat": 54.23033,
    "lon": -1.330692,
    "sequence": 33
  },
  {
    "name": "Bagby Lane",
    "lat": 54.208569,
    "lon": -1.300241,
    "sequence": 34
  },
  {
    "name": "Thirkleby Park",
    "lat": 54.204535,
    "lon": -1.294239,
    "sequence": 35
  },
  {
    "name": "Coxwold Village Hall",
    "lat": 54.187653,
    "lon": -1.18281,
    "sequence": 36
  },
  {
    "name": "Coxwold Garage",
    "lat": 54.188967,
    "lon": -1.180378,
    "sequence": 37
  },
  {
    "name": "The Abbey Inn",
    "lat": 54.203398,
    "lon": -1.160377,
    "sequence": 38
  },
  {
    "name": "Wass Stapylton Arms",
    "lat": 54.205913,
    "lon": -1.151219,
    "sequence": 39
  },
  {
    "name": "The White Horse",
    "lat": 54.200957,
    "lon": -1.110728,
    "sequence": 40
  },
  {
    "name": "The White Swan",
    "lat": 54.201077,
    "lon": -1.107506,
    "sequence": 41
  },
  {
    "name": "Main Street",
    "lat": 54.201422,
    "lon": -1.103206,
    "sequence": 42
  },
  {
    "name": "Golden Square Caravan Park",
    "lat": 54.209276,
    "lon": -1.073336,
    "sequence": 43
  },
  {
    "name": "Sproxton War Memorial",
    "lat": 54.226225,
    "lon": -1.060348,
    "sequence": 44
  },
  {
    "name": "Helmsley Market Place",
    "lat": 54.246409,
    "lon": -1.061117,
    "sequence": 45
  }
]