[
  {
    "name": "Middleton Chapel Lane",
    "lat": 53.93264,
    "lon": -0.560701,
    "sequence": 1
  },
  {
    "name": "Middleton Front Street",
    "lat": 53.932835,
    "lon": -0.561928,
    "sequence": 2
  },
  {
    "name": "Middleton (Pond)",
    "lat": 53.933773,
    "lon": -0.560693,
    "sequence": 3
  },
  {
    "name": "Bainton Middleton Road",
    "lat": 53.939952,
    "lon": -0.54459,
    "sequence": 4
  },
  {
    "name": "Bainton Main Street",
    "lat": 53.957728,
    "lon": -0.533257,
    "sequence": 5
  },
  {
    "name": "Bainton Church",
    "lat": 53.958377,
    "lon": -0.531146,
    "sequence": 6
  },
  {
    "name": "Bainton Church Street",
    "lat": 53.956114,
    "lon": -0.532094,
    "sequence": 7
  },
  {
    "name": "Lund (Wellington Inn)",
    "lat": 53.919934,
    "lon": -0.523953,
    "sequence": 8
  },
  {
    "name": "Lockington (Village)",
    "lat": 53.912715,
    "lon": -0.484866,
    "sequence": 9
  },
  {
    "name": "Holme (East Street)",
    "lat": 53.904661,
    "lon": -0.528982,
    "sequence": 10
  },
  {
    "name": "South Dalton",
    "lat": 53.895935,
    "lon": -0.529912,
    "sequence": 11
  },
  {
    "name": "South Dalton Main Street",
    "lat": 53.894062,
    "lon": -0.529613,
    "sequence": 12
  },
  {
    "name": "Etton",
    "lat": 53.877989,
    "lon": -0.515664,
    "sequence": 13
  },
  {
    "name": "Etton Main Street",
    "lat": 53.878397,
    "lon": -0.512333,
    "sequence": 14
  },
  {
    "name": "Cherry Burton Etton Road",
    "lat": 53.868416,
    "lon": -0.503319,
    "sequence": 15
  },
  {
    "name": "Cherry Burton",
    "lat": 53.866084,
    "lon": -0.499448,
    "sequence": 16
  },
  {
    "name": "Cherry Burton Main Street",
    "lat": 53.865846,
    "lon": -0.493389,
    "sequence": 17
  },
  {
    "name": "Cherry Burton Main Street",
    "lat": 53.865087,
    "lon": -0.485858,
    "sequence": 18
  },
  {
    "name": "Beverley (Molescroft Inn)",
    "lat": 53.853345,
    "lon": -0.451846,
    "sequence": 19
  },
  {
    "name": "Beverley Driffield Road",
    "lat": 53.854897,
    "lon": -0.448854,
    "sequence": 20
  },
  {
    "name": "Beverley Woodhall Way",
    "lat": 53.855195,
    "lon": -0.447566,
    "sequence": 21
  },
  {
    "name": "Beverley Woodhall Way",
    "lat": 53.856248,
    "lon": -0.439347,
    "sequence": 22
  },
  {
    "name": "Beverley Woodhall Way",
    "lat": 53.854719,
    "lon": -0.438583,
    "sequence": 23
  },
  {
    "name": "Beverley Woodhall Way",
    "lat": 53.852302,
    "lon": -0.437289,
    "sequence": 24
  },
  {
    "name": "Beverley Woodhall Way",
    "lat": 53.849034,
    "lon": -0.435541,
    "sequence": 25
  },
  {
    "name": "Beverley Manor Road",
    "lat": 53.847357,
    "lon": -0.434479,
    "sequence": 26
  },
  {
    "name": "Beverley Bus Station",
    "lat": 53.844236,
    "lon": -0.43157,
    "sequence": 27
  }
]