[
  {
    "name": "Hedon (Inmans Estate)",
    "lat": 53.739179,
    "lon": -0.187865,
    "sequence": 1
  },
  {
    "name": "Hedon Fewson Garth",
    "lat": 53.739326,
    "lon": -0.191058,
    "sequence": 2
  },
  {
    "name": "Hedon Fleet Garth",
    "lat": 53.740857,
    "lon": -0.191842,
    "sequence": 3
  },
  {
    "name": "Hedon Albina Garth",
    "lat": 53.7424,
    "lon": -0.190441,
    "sequence": 4
  },
  {
    "name": "Hedon Haven Garth",
    "lat": 53.741873,
    "lon": -0.187689,
    "sequence": 5
  },
  {
    "name": "Hedon Guy Garth",
    "lat": 53.741256,
    "lon": -0.186138,
    "sequence": 6
  },
  {
    "name": "Hedon Greville Road",
    "lat": 53.73989,
    "lon": -0.184362,
    "sequence": 7
  },
  {
    "name": "Hedon St Mary's Drive",
    "lat": 53.738742,
    "lon": -0.186944,
    "sequence": 8
  },
  {
    "name": "Hedon Bond Street",
    "lat": 53.737467,
    "lon": -0.188803,
    "sequence": 9
  },
  {
    "name": "Hedon Adeliza Garth",
    "lat": 53.736826,
    "lon": -0.195199,
    "sequence": 10
  },
  {
    "name": "Hedon Thorn Road Corner",
    "lat": 53.739138,
    "lon": -0.195888,
    "sequence": 11
  },
  {
    "name": "Hedon Crossroads",
    "lat": 53.739399,
    "lon": -0.198333,
    "sequence": 12
  },
  {
    "name": "Hedon St Augustines Gate",
    "lat": 53.740514,
    "lon": -0.198938,
    "sequence": 13
  },
  {
    "name": "Hedon Soutter Gate",
    "lat": 53.743599,
    "lon": -0.199048,
    "sequence": 14
  },
  {
    "name": "Rosedale Community Unit",
    "lat": 53.74539,
    "lon": -0.197364,
    "sequence": 15
  },
  {
    "name": "Hedon Preston Road",
    "lat": 53.748196,
    "lon": -0.197441,
    "sequence": 16
  },
  {
    "name": "Preston Station Road",
    "lat": 53.750892,
    "lon": -0.197993,
    "sequence": 17
  },
  {
    "name": "Preston (Crossroads)",
    "lat": 53.753197,
    "lon": -0.198274,
    "sequence": 18
  },
  {
    "name": "Village Farm Road",
    "lat": 53.756172,
    "lon": -0.203016,
    "sequence": 19
  },
  {
    "name": "Cranswick Country Foods",
    "lat": 53.755556,
    "lon": -0.207517,
    "sequence": 20
  },
  {
    "name": "Westfield Lane",
    "lat": 53.754101,
    "lon": -0.218469,
    "sequence": 21
  },
  {
    "name": "Staithes Road",
    "lat": 53.747864,
    "lon": -0.228257,
    "sequence": 22
  },
  {
    "name": "Salt End Hull Road",
    "lat": 53.742811,
    "lon": -0.235476,
    "sequence": 23
  },
  {
    "name": "Salt End Hull Road",
    "lat": 53.744224,
    "lon": -0.244167,
    "sequence": 24
  },
  {
    "name": "Somerden Road",
    "lat": 53.744981,
    "lon": -0.249822,
    "sequence": 25
  },
  {
    "name": "Queen Elizabeth Dock",
    "lat": 53.746012,
    "lon": -0.258924,
    "sequence": 26
  },
  {
    "name": "Elba Street",
    "lat": 53.746604,
    "lon": -0.263752,
    "sequence": 27
  },
  {
    "name": "King George Dock",
    "lat": 53.747498,
    "lon": -0.270267,
    "sequence": 28
  },
  {
    "name": "Marfleet Avenue",
    "lat": 53.747854,
    "lon": -0.276879,
    "sequence": 29
  },
  {
    "name": "Northern Gateway",
    "lat": 53.747854,
    "lon": -0.287541,
    "sequence": 30
  },
  {
    "name": "Alexandra Dock",
    "lat": 53.747595,
    "lon": -0.293967,
    "sequence": 31
  },
  {
    "name": "Lee Smith Street",
    "lat": 53.747616,
    "lon": -0.299865,
    "sequence": 32
  },
  {
    "name": "Ferries Street",
    "lat": 53.747543,
    "lon": -0.304251,
    "sequence": 33
  },
  {
    "name": "Woodhouse Street",
    "lat": 53.747384,
    "lon": -0.310142,
    "sequence": 34
  },
  {
    "name": "Siemens Factory",
    "lat": 53.746184,
    "lon": -0.306687,
    "sequence": 35
  },
  {
    "name": "Earles Road",
    "lat": 53.746611,
    "lon": -0.310794,
    "sequence": 36
  },
  {
    "name": "Victoria Dock",
    "lat": 53.744776,
    "lon": -0.311368,
    "sequence": 37
  },
  {
    "name": "Helm Drive",
    "lat": 53.743612,
    "lon": -0.31231,
    "sequence": 38
  },
  {
    "name": "Maldon Drive",
    "lat": 53.742849,
    "lon": -0.318194,
    "sequence": 39
  },
  {
    "name": "The Haven",
    "lat": 53.74277,
    "lon": -0.322185,
    "sequence": 40
  },
  {
    "name": "Drypool Bridge",
    "lat": 53.745187,
    "lon": -0.329155,
    "sequence": 41
  },
  {
    "name": "Alfred Gelder Street F",
    "lat": 53.744082,
    "lon": -0.33434,
    "sequence": 42
  },
  {
    "name": "Alfred Gelder Street G",
    "lat": 53.743791,
    "lon": -0.337369,
    "sequence": 43
  },
  {
    "name": "Bond Street E",
    "lat": 53.745981,
    "lon": -0.339709,
    "sequence": 44
  },
  {
    "name": "Albion Street D",
    "lat": 53.746537,
    "lon": -0.341583,
    "sequence": 45
  },
  {
    "name": "Hull Interchange",
    "lat": 53.744462,
    "lon": -0.348215,
    "sequence": 46
  }
]