[
  {
    "name": "Bridlington Bus Station",
    "lat": 54.083986,
    "lon": -0.189156,
    "sequence": 1
  },
  {
    "name": "Bridlington Promenade",
    "lat": 54.085165905,
    "lon": -0.186918394,
    "sequence": 2
  },
  {
    "name": "Bridlington Flamborough Rd",
    "lat": 54.087112914,
    "lon": -0.185488027,
    "sequence": 3
  },
  {
    "name": "Bridlington Flamborough Rd",
    "lat": 54.089735266,
    "lon": -0.185924047,
    "sequence": 4
  },
  {
    "name": "Bridlington Eighth Avenue",
    "lat": 54.092098,
    "lon": -0.182824,
    "sequence": 5
  },
  {
    "name": "Bridlington Eighth Avenue",
    "lat": 54.093654,
    "lon": -0.179942,
    "sequence": 6
  },
  {
    "name": "Bridlington Limekiln Lane",
    "lat": 54.096741,
    "lon": -0.177207,
    "sequence": 7
  },
  {
    "name": "Bridlington Limekiln Lane",
    "lat": 54.098284,
    "lon": -0.177614,
    "sequence": 8
  },
  {
    "name": "Bridlington Sewerby Road",
    "lat": 54.099085,
    "lon": -0.175927,
    "sequence": 9
  },
  {
    "name": "Sewerby Park Gates",
    "lat": 54.10241,
    "lon": -0.164615,
    "sequence": 10
  },
  {
    "name": "Marton Flamborough Road",
    "lat": 54.110296,
    "lon": -0.164772,
    "sequence": 11
  },
  {
    "name": "Bridlington Flamborough Rd",
    "lat": 54.111608,
    "lon": -0.157677,
    "sequence": 12
  },
  {
    "name": "Flamborough B1255",
    "lat": 54.1128,
    "lon": -0.144619,
    "sequence": 13
  },
  {
    "name": "Flamborough South Sea Rd",
    "lat": 54.114771,
    "lon": -0.123295,
    "sequence": 14
  },
  {
    "name": "Flamborough South Sea Road",
    "lat": 54.116495,
    "lon": -0.122009,
    "sequence": 15
  },
  {
    "name": "Flamborough Mereside",
    "lat": 54.118113,
    "lon": -0.122639,
    "sequence": 16
  },
  {
    "name": "Thornwick Holiday Centre",
    "lat": 54.125523,
    "lon": -0.118769,
    "sequence": 17
  },
  {
    "name": "Flamborough North Landing",
    "lat": 54.127743,
    "lon": -0.106134,
    "sequence": 18
  }
]