[
  {
    "name": "York Railway Station",
    "lat": 53.958127107,
    "lon": -1.09212696,
    "sequence": 1
  },
  {
    "name": "Rougier Street Stop C",
    "lat": 53.958441,
    "lon": -1.087304,
    "sequence": 2
  },
  {
    "name": "York, Micklegate, CK",
    "lat": 53.957306,
    "lon": -1.085805,
    "sequence": 3
  },
  {
    "name": "York, Clifford Street, TG",
    "lat": 53.956374,
    "lon": -1.081436,
    "sequence": 4
  },
  {
    "name": "York Piccadilly",
    "lat": 53.95677,
    "lon": -1.077907,
    "sequence": 5
  },
  {
    "name": "York Stonebow",
    "lat": 53.959089548,
    "lon": -1.078054,
    "sequence": 6
  },
  {
    "name": "York, Peasholme Green, adj Quilt Museum",
    "lat": 53.960552661,
    "lon": -1.075461172,
    "sequence": 7
  },
  {
    "name": "Morrison's",
    "lat": 53.959734424,
    "lon": -1.06959621,
    "sequence": 8
  },
  {
    "name": "James Street",
    "lat": 53.955656453,
    "lon": -1.067614392,
    "sequence": 9
  },
  {
    "name": "Nicholas Street",
    "lat": 53.954521,
    "lon": -1.064912,
    "sequence": 10
  },
  {
    "name": "The Boulevard",
    "lat": 53.954474,
    "lon": -1.061256,
    "sequence": 11
  },
  {
    "name": "Matmer House",
    "lat": 53.954071,
    "lon": -1.057988,
    "sequence": 12
  },
  {
    "name": "Milson Grove",
    "lat": 53.953926,
    "lon": -1.052064,
    "sequence": 13
  },
  {
    "name": "Windmill Lane",
    "lat": 53.953869,
    "lon": -1.044826,
    "sequence": 14
  },
  {
    "name": "Archbishop Holgate's School",
    "lat": 53.953854,
    "lon": -1.040682,
    "sequence": 15
  },
  {
    "name": "Osbaldwick Pinelands Way",
    "lat": 53.954077,
    "lon": -1.034886,
    "sequence": 16
  },
  {
    "name": "Canham Grove",
    "lat": 53.95371,
    "lon": -1.031724,
    "sequence": 17
  },
  {
    "name": "B&Q",
    "lat": 53.953943,
    "lon": -1.027254,
    "sequence": 18
  },
  {
    "name": "Grimston Lodge",
    "lat": 53.955505,
    "lon": -1.020345,
    "sequence": 19
  },
  {
    "name": "Grimston Court",
    "lat": 53.957235,
    "lon": -1.004424,
    "sequence": 20
  },
  {
    "name": "The Windmill",
    "lat": 53.955448,
    "lon": -0.977843,
    "sequence": 21
  },
  {
    "name": "Four Lane Ends",
    "lat": 53.954567,
    "lon": -0.970458,
    "sequence": 22
  },
  {
    "name": "Scoreby Lodge",
    "lat": 53.953080572,
    "lon": -0.958623367,
    "sequence": 23
  },
  {
    "name": "Kexby Bridge",
    "lat": 53.950122,
    "lon": -0.93386,
    "sequence": 24
  },
  {
    "name": "Catton Lane End",
    "lat": 53.953112,
    "lon": -0.918468,
    "sequence": 25
  },
  {
    "name": "Willberfoss Main Street",
    "lat": 53.948794046,
    "lon": -0.896287643,
    "sequence": 26
  },
  {
    "name": "Wilberfoss Post Office",
    "lat": 53.948845062,
    "lon": -0.89109035,
    "sequence": 27
  },
  {
    "name": "Wilberfoss Main Street",
    "lat": 53.948683806,
    "lon": -0.888230009,
    "sequence": 28
  },
  {
    "name": "Wilberfoss Main Street",
    "lat": 53.947613394,
    "lon": -0.886201486,
    "sequence": 29
  },
  {
    "name": "Wilberfoss A1079",
    "lat": 53.946554,
    "lon": -0.885316,
    "sequence": 30
  },
  {
    "name": "A1079 Wilberfoss",
    "lat": 53.942941,
    "lon": -0.86716,
    "sequence": 31
  },
  {
    "name": "A1079 Near Wilberfoss",
    "lat": 53.936737,
    "lon": -0.855583,
    "sequence": 32
  },
  {
    "name": "A1079 Barmby Moor",
    "lat": 53.932987,
    "lon": -0.838444,
    "sequence": 33
  },
  {
    "name": "Barmby Moor Main Street",
    "lat": 53.930891083,
    "lon": -0.821702171,
    "sequence": 34
  },
  {
    "name": "Barmby Moor Main Street",
    "lat": 53.931377259,
    "lon": -0.818124392,
    "sequence": 35
  },
  {
    "name": "Barmby Moor",
    "lat": 53.931987955,
    "lon": -0.81533503,
    "sequence": 36
  },
  {
    "name": "Pocklington Barmby Road",
    "lat": 53.931315619,
    "lon": -0.787587695,
    "sequence": 37
  },
  {
    "name": "Pocklington Barmby Road",
    "lat": 53.931828608,
    "lon": -0.784983497,
    "sequence": 38
  },
  {
    "name": "Pocklington George Street",
    "lat": 53.931409553,
    "lon": -0.780883242,
    "sequence": 39
  },
  {
    "name": "Pocklington EY Depot",
    "lat": 53.929514,
    "lon": -0.780086,
    "sequence": 40
  }
]