[
  {
    "name": "Bridgehead Business Park",
    "lat": 53.724073,
    "lon": -0.460782,
    "sequence": 1
  },
  {
    "name": "Hessle Boothferry Road",
    "lat": 53.726393,
    "lon": -0.454619,
    "sequence": 2
  },
  {
    "name": "Hessle Boothferry Road",
    "lat": 53.7279,
    "lon": -0.450137,
    "sequence": 3
  },
  {
    "name": "Hessle Swanland Road",
    "lat": 53.727979,
    "lon": -0.440994,
    "sequence": 4
  },
  {
    "name": "Hessle Swanland Road",
    "lat": 53.727425,
    "lon": -0.436467,
    "sequence": 5
  },
  {
    "name": "Hessle Beverley Road",
    "lat": 53.726665551,
    "lon": -0.436100925,
    "sequence": 6
  },
  {
    "name": "Hessle Square",
    "lat": 53.723201576,
    "lon": -0.435168501,
    "sequence": 7
  },
  {
    "name": "Hessle Beverley Road",
    "lat": 53.726686288,
    "lon": -0.436312364,
    "sequence": 8
  },
  {
    "name": "Hessle Sunningdale Road",
    "lat": 53.728149062,
    "lon": -0.434060133,
    "sequence": 9
  },
  {
    "name": "Hessle Cottesmore Road",
    "lat": 53.727951433,
    "lon": -0.429262316,
    "sequence": 10
  },
  {
    "name": "Hessle Cottesmore Road",
    "lat": 53.727869434,
    "lon": -0.423702307,
    "sequence": 11
  },
  {
    "name": "Hessle First Lane",
    "lat": 53.728765907,
    "lon": -0.423517188,
    "sequence": 12
  },
  {
    "name": "Bethune Avenue",
    "lat": 53.729917,
    "lon": -0.418805,
    "sequence": 13
  },
  {
    "name": "Burcott Garth",
    "lat": 53.731198,
    "lon": -0.416407,
    "sequence": 14
  },
  {
    "name": "Swanage Walk",
    "lat": 53.733055,
    "lon": -0.412714,
    "sequence": 15
  },
  {
    "name": "Netherton Road",
    "lat": 53.733893,
    "lon": -0.411546,
    "sequence": 16
  },
  {
    "name": "Anlaby Park Road North",
    "lat": 53.735799,
    "lon": -0.4102,
    "sequence": 17
  },
  {
    "name": "Costello Fields",
    "lat": 53.736824,
    "lon": -0.402778,
    "sequence": 18
  },
  {
    "name": "Pickering Road Fiveways",
    "lat": 53.737795,
    "lon": -0.398738,
    "sequence": 19
  },
  {
    "name": "Wistow Grove",
    "lat": 53.739164,
    "lon": -0.396276,
    "sequence": 20
  },
  {
    "name": "Newington Avenue",
    "lat": 53.740402,
    "lon": -0.394075,
    "sequence": 21
  },
  {
    "name": "Boothferry Park",
    "lat": 53.741947,
    "lon": -0.391287,
    "sequence": 22
  },
  {
    "name": "Three Tuns",
    "lat": 53.742998,
    "lon": -0.388563,
    "sequence": 23
  },
  {
    "name": "Silver Cod",
    "lat": 53.743737,
    "lon": -0.383364,
    "sequence": 24
  },
  {
    "name": "De La Pole Avenue",
    "lat": 53.743739,
    "lon": -0.380164,
    "sequence": 25
  },
  {
    "name": "Wenlock Barracks",
    "lat": 53.743816438,
    "lon": -0.375930256,
    "sequence": 26
  },
  {
    "name": "Anlaby Road Stadium",
    "lat": 53.743995334,
    "lon": -0.371889697,
    "sequence": 27
  },
  {
    "name": "Arnold Street",
    "lat": 53.743433119,
    "lon": -0.3642688,
    "sequence": 28
  },
  {
    "name": "Gladstone Street",
    "lat": 53.743276407,
    "lon": -0.360983258,
    "sequence": 29
  },
  {
    "name": "Hull Royal Infirmary",
    "lat": 53.743258,
    "lon": -0.358058,
    "sequence": 30
  },
  {
    "name": "Eye Clinic",
    "lat": 53.74305,
    "lon": -0.353351,
    "sequence": 31
  },
  {
    "name": "Park Street",
    "lat": 53.743017,
    "lon": -0.350319,
    "sequence": 32
  },
  {
    "name": "Midland Street",
    "lat": 53.74319,
    "lon": -0.346521,
    "sequence": 33
  },
  {
    "name": "Carr Lane (opp Primark)",
    "lat": 53.743612,
    "lon": -0.340045,
    "sequence": 34
  },
  {
    "name": "Queens Gardens",
    "lat": 53.744246443,
    "lon": -0.33844277,
    "sequence": 35
  },
  {
    "name": "Bond Street E",
    "lat": 53.745981,
    "lon": -0.339709,
    "sequence": 36
  },
  {
    "name": "Albion Street D",
    "lat": 53.746537,
    "lon": -0.341583,
    "sequence": 37
  },
  {
    "name": "Hull Interchange",
    "lat": 53.744693,
    "lon": -0.34669,
    "sequence": 38
  }
]