[
  {
    "name": "Malton Bus Station",
    "lat": 54.132418915,
    "lon": -0.796937038,
    "sequence": 1
  },
  {
    "name": "Malton, Railway Street, N-bound",
    "lat": 54.134400693,
    "lon": -0.797062826,
    "sequence": 2
  },
  {
    "name": "Malton, The Mount, opp",
    "lat": 54.133766457,
    "lon": -0.802866618,
    "sequence": 3
  },
  {
    "name": "Malton, Rockingham Close, SW-bound",
    "lat": 54.131953719,
    "lon": -0.806775653,
    "sequence": 4
  },
  {
    "name": "Malton, York Road Ind Estate, W-bound",
    "lat": 54.127596276,
    "lon": -0.817888431,
    "sequence": 5
  },
  {
    "name": "High Hutton, Huttons Ambo Lane End, SW-bound",
    "lat": 54.108011821,
    "lon": -0.855140111,
    "sequence": 6
  },
  {
    "name": "Firby, Crambeck, SW-bound",
    "lat": 54.095590654,
    "lon": -0.879045808,
    "sequence": 7
  },
  {
    "name": "Welburn, Crown and Cushion",
    "lat": 54.102951105,
    "lon": -0.899417558,
    "sequence": 8
  },
  {
    "name": "Bulmer",
    "lat": 54.0993362,
    "lon": -0.934181264,
    "sequence": 9
  },
  {
    "name": "Sheriff Hutton, Church End",
    "lat": 54.089164272,
    "lon": -1.001543791,
    "sequence": 10
  },
  {
    "name": "Sheriff Hutton, Main Street, W-bound",
    "lat": 54.089059837,
    "lon": -1.006301037,
    "sequence": 11
  },
  {
    "name": "Sheriff Hutton, Village Hall, adj",
    "lat": 54.08765347,
    "lon": -1.009055903,
    "sequence": 12
  },
  {
    "name": "Lilling",
    "lat": 54.078465416,
    "lon": -1.013141739,
    "sequence": 13
  },
  {
    "name": "Flaxton, Thompsons Arms, adj",
    "lat": 54.062058702,
    "lon": -0.972965837,
    "sequence": 14
  },
  {
    "name": "Flaxton",
    "lat": 54.053080067,
    "lon": -0.963579033,
    "sequence": 15
  },
  {
    "name": "Claxton, Flaxton Lane End, adj",
    "lat": 54.039527619,
    "lon": -0.95234115,
    "sequence": 16
  },
  {
    "name": "Claxton, Foxhill Park, adj",
    "lat": 54.038788683,
    "lon": -0.943900049,
    "sequence": 17
  },
  {
    "name": "Claxton",
    "lat": 54.032582918,
    "lon": -0.94140068,
    "sequence": 18
  },
  {
    "name": "Sand Hutton, Stamford Bridge Road, opp",
    "lat": 54.020036102,
    "lon": -0.935354417,
    "sequence": 19
  },
  {
    "name": "Sand Hutton, School",
    "lat": 54.017909554,
    "lon": -0.939834845,
    "sequence": 20
  },
  {
    "name": "Hazelbush, FERA, o/s",
    "lat": 54.02010707,
    "lon": -0.972442486,
    "sequence": 21
  },
  {
    "name": "Hazelbush, The Four Alls, opp",
    "lat": 54.017160484,
    "lon": -0.980008834,
    "sequence": 22
  },
  {
    "name": "Hopgrove, Toby Carvery",
    "lat": 53.988927937,
    "lon": -1.028726797,
    "sequence": 23
  },
  {
    "name": "Monks Cross, Vangarde",
    "lat": 53.982003227,
    "lon": -1.048467923,
    "sequence": 24
  },
  {
    "name": "Monks Cross, Sainsbury's, adj",
    "lat": 53.98701319,
    "lon": -1.04778946,
    "sequence": 25
  },
  {
    "name": "Monks Cross Drive, o/s Aviva",
    "lat": 53.989099847,
    "lon": -1.043440846,
    "sequence": 26
  },
  {
    "name": "Monks Cross Shopping Park",
    "lat": 53.987321507,
    "lon": -1.043603599,
    "sequence": 27
  },
  {
    "name": "Monks Cross, ASDA",
    "lat": 53.986772932,
    "lon": -1.04582756,
    "sequence": 28
  },
  {
    "name": "Heworth, Laburnum Garth, opp",
    "lat": 53.975609839,
    "lon": -1.057228077,
    "sequence": 29
  },
  {
    "name": "Heworth, Straylands Grove, o/s 5",
    "lat": 53.973916655,
    "lon": -1.057937128,
    "sequence": 30
  },
  {
    "name": "Elm Park Way",
    "lat": 53.973842637,
    "lon": -1.055377425,
    "sequence": 31
  },
  {
    "name": "Heworth, Woodlands Grove",
    "lat": 53.971295744,
    "lon": -1.053819009,
    "sequence": 32
  },
  {
    "name": "Heworth, Hempland Lane, adj",
    "lat": 53.970901419,
    "lon": -1.053965146,
    "sequence": 33
  },
  {
    "name": "Heworth, Herberts Way",
    "lat": 53.970268765,
    "lon": -1.056952239,
    "sequence": 34
  },
  {
    "name": "Heworth Inn, o/s",
    "lat": 53.966723939,
    "lon": -1.066864405,
    "sequence": 35
  },
  {
    "name": "Heworth, Eboracum Way",
    "lat": 53.965473337,
    "lon": -1.071343345,
    "sequence": 36
  },
  {
    "name": "York, Foss Bank",
    "lat": 53.96279737,
    "lon": -1.073993987,
    "sequence": 37
  },
  {
    "name": "York, Peasholme Green, opp Church",
    "lat": 53.960630374,
    "lon": -1.075047934,
    "sequence": 38
  },
  {
    "name": "York, Stonebow",
    "lat": 53.95899093,
    "lon": -1.078086656,
    "sequence": 39
  },
  {
    "name": "York, Low Ousegate, TF",
    "lat": 53.957483015,
    "lon": -1.08305776,
    "sequence": 40
  },
  {
    "name": "York, Rougier Street, CB",
    "lat": 53.958623966,
    "lon": -1.087711616,
    "sequence": 41
  },
  {
    "name": "Station Avenue",
    "lat": 53.959349,
    "lon": -1.089692,
    "sequence": 42
  }
]