[
  {
    "name": "York Railway Station",
    "lat": 53.958127107,
    "lon": -1.09212696,
    "sequence": 1
  },
  {
    "name": "Rougier Street Stop C",
    "lat": 53.958441,
    "lon": -1.087304,
    "sequence": 2
  },
  {
    "name": "York, Micklegate, CJ",
    "lat": 53.9573167,
    "lon": -1.086002766,
    "sequence": 3
  },
  {
    "name": "Clifford's Tower",
    "lat": 53.955576511,
    "lon": -1.080569813,
    "sequence": 4
  },
  {
    "name": "York Piccadilly",
    "lat": 53.95677,
    "lon": -1.077907,
    "sequence": 5
  },
  {
    "name": "York Merchantgate",
    "lat": 53.957426,
    "lon": -1.077893,
    "sequence": 6
  },
  {
    "name": "Melrose's Yard",
    "lat": 53.95674,
    "lon": -1.075226,
    "sequence": 7
  },
  {
    "name": "Huby Court",
    "lat": 53.955563,
    "lon": -1.071731,
    "sequence": 8
  },
  {
    "name": "Lawerence Street",
    "lat": 53.954841,
    "lon": -1.06908,
    "sequence": 9
  },
  {
    "name": "Nicholas Street",
    "lat": 53.954521,
    "lon": -1.064912,
    "sequence": 10
  },
  {
    "name": "The Boulevard",
    "lat": 53.954474,
    "lon": -1.061256,
    "sequence": 11
  },
  {
    "name": "Matmer House",
    "lat": 53.954071,
    "lon": -1.057988,
    "sequence": 12
  },
  {
    "name": "Milson Grove",
    "lat": 53.953926,
    "lon": -1.052064,
    "sequence": 13
  },
  {
    "name": "Windmill Lane",
    "lat": 53.953869,
    "lon": -1.044826,
    "sequence": 14
  },
  {
    "name": "Archbishop Holgate's School",
    "lat": 53.953854,
    "lon": -1.040682,
    "sequence": 15
  },
  {
    "name": "Osbaldwick Pinelands Way",
    "lat": 53.954077,
    "lon": -1.034886,
    "sequence": 16
  },
  {
    "name": "Canham Grove",
    "lat": 53.95371,
    "lon": -1.031724,
    "sequence": 17
  },
  {
    "name": "B&Q",
    "lat": 53.953943,
    "lon": -1.027254,
    "sequence": 18
  },
  {
    "name": "Redbarn Drive",
    "lat": 53.956734071,
    "lon": -1.026686108,
    "sequence": 19
  },
  {
    "name": "Osbaldwick Link Road",
    "lat": 53.958895759,
    "lon": -1.028357984,
    "sequence": 20
  },
  {
    "name": "Murton",
    "lat": 53.965964002,
    "lon": -1.011166709,
    "sequence": 21
  },
  {
    "name": "Panman Lane",
    "lat": 53.977087284,
    "lon": -0.968972648,
    "sequence": 22
  },
  {
    "name": "Duke of York Inn",
    "lat": 53.987560277,
    "lon": -0.950488596,
    "sequence": 23
  },
  {
    "name": "The Manor House",
    "lat": 53.989282244,
    "lon": -0.943902174,
    "sequence": 24
  },
  {
    "name": "Stamford Bridge Square",
    "lat": 53.99137402,
    "lon": -0.914365492,
    "sequence": 25
  },
  {
    "name": "Full Sutton Prison",
    "lat": 53.986402045,
    "lon": -0.869351549,
    "sequence": 26
  },
  {
    "name": "Full Sutton",
    "lat": 53.988883396,
    "lon": -0.864647726,
    "sequence": 27
  },
  {
    "name": "Fangfoss",
    "lat": 53.968829006,
    "lon": -0.834428917,
    "sequence": 28
  },
  {
    "name": "Bolton",
    "lat": 53.961083406,
    "lon": -0.826353351,
    "sequence": 29
  },
  {
    "name": "Yapham",
    "lat": 53.958674518,
    "lon": -0.799366225,
    "sequence": 30
  },
  {
    "name": "Meltonby",
    "lat": 53.962688726,
    "lon": -0.78881794,
    "sequence": 31
  },
  {
    "name": "Bishop Wilton",
    "lat": 53.985256754,
    "lon": -0.78530929,
    "sequence": 32
  },
  {
    "name": "Pocklington George Street",
    "lat": 53.931409553,
    "lon": -0.780883242,
    "sequence": 33
  },
  {
    "name": "Pocklington EY Depot",
    "lat": 53.929514,
    "lon": -0.780086,
    "sequence": 34
  }
]