[
  {
    "name": "Helmsley Market Place",
    "lat": 54.246273,
    "lon": -1.06086,
    "sequence": 1
  },
  {
    "name": "Sproxton",
    "lat": 54.226574,
    "lon": -1.060095,
    "sequence": 2
  },
  {
    "name": "Golden Square Caraven Park",
    "lat": 54.209255,
    "lon": -1.072938,
    "sequence": 3
  },
  {
    "name": "Main Street",
    "lat": 54.201368,
    "lon": -1.103115,
    "sequence": 4
  },
  {
    "name": "The White Swan",
    "lat": 54.201014,
    "lon": -1.107523,
    "sequence": 5
  },
  {
    "name": "The White Horse",
    "lat": 54.200885,
    "lon": -1.110714,
    "sequence": 6
  },
  {
    "name": "Wass Stapylton Arms",
    "lat": 54.205912,
    "lon": -1.151066,
    "sequence": 7
  },
  {
    "name": "The Abbey Inn",
    "lat": 54.203073,
    "lon": -1.160246,
    "sequence": 8
  },
  {
    "name": "Coxwold Garage",
    "lat": 54.189134,
    "lon": -1.179961,
    "sequence": 9
  },
  {
    "name": "Coxwold Village Hall",
    "lat": 54.187741,
    "lon": -1.183804,
    "sequence": 10
  },
  {
    "name": "Thirkleby Park",
    "lat": 54.204426,
    "lon": -1.294118,
    "sequence": 11
  },
  {
    "name": "Bagby Lane",
    "lat": 54.209033,
    "lon": -1.301184,
    "sequence": 12
  },
  {
    "name": "York Road",
    "lat": 54.230251,
    "lon": -1.330939,
    "sequence": 13
  },
  {
    "name": "Thirsk Market Place",
    "lat": 54.23278,
    "lon": -1.343079,
    "sequence": 14
  },
  {
    "name": "Tesco Store",
    "lat": 54.231054,
    "lon": -1.346251,
    "sequence": 15
  },
  {
    "name": "Racecourse",
    "lat": 54.230906,
    "lon": -1.352236,
    "sequence": 16
  },
  {
    "name": "Racecourse",
    "lat": 54.230339,
    "lon": -1.355451,
    "sequence": 17
  },
  {
    "name": "Racecourse",
    "lat": 54.22978,
    "lon": -1.358405,
    "sequence": 18
  },
  {
    "name": "Thirsk Railway Station",
    "lat": 54.22766,
    "lon": -1.370618,
    "sequence": 19
  },
  {
    "name": "Carlton Close",
    "lat": 54.227829,
    "lon": -1.375355,
    "sequence": 20
  },
  {
    "name": "Manfield Terrace",
    "lat": 54.227543,
    "lon": -1.379163,
    "sequence": 21
  },
  {
    "name": "County Primary School",
    "lat": 54.224671,
    "lon": -1.392413,
    "sequence": 22
  },
  {
    "name": "Dog And Gun",
    "lat": 54.223046,
    "lon": -1.396209,
    "sequence": 23
  },
  {
    "name": "Busby Stoop Roundabout",
    "lat": 54.222071,
    "lon": -1.413555,
    "sequence": 24
  },
  {
    "name": "Busby Stoop Inn",
    "lat": 54.222126,
    "lon": -1.413753,
    "sequence": 25
  },
  {
    "name": "St Lawrence's Church",
    "lat": 54.223179,
    "lon": -1.395931,
    "sequence": 26
  },
  {
    "name": "County Primary School",
    "lat": 54.225092,
    "lon": -1.392069,
    "sequence": 27
  },
  {
    "name": "Manfield Terrace",
    "lat": 54.227624,
    "lon": -1.379331,
    "sequence": 28
  },
  {
    "name": "Carlton Close",
    "lat": 54.227868,
    "lon": -1.37606,
    "sequence": 29
  },
  {
    "name": "Railway Station",
    "lat": 54.227847,
    "lon": -1.370231,
    "sequence": 30
  },
  {
    "name": "Racecourse",
    "lat": 54.229338,
    "lon": -1.361572,
    "sequence": 31
  },
  {
    "name": "Racecourse",
    "lat": 54.230631,
    "lon": -1.354511,
    "sequence": 32
  },
  {
    "name": "Racecourse",
    "lat": 54.230987,
    "lon": -1.352296,
    "sequence": 33
  },
  {
    "name": "Thirsk Market Place",
    "lat": 54.23278,
    "lon": -1.343079,
    "sequence": 34
  },
  {
    "name": "Hambleton Drive",
    "lat": 54.23473,
    "lon": -1.338093,
    "sequence": 35
  },
  {
    "name": "York Road",
    "lat": 54.23033,
    "lon": -1.330692,
    "sequence": 36
  },
  {
    "name": "Bagby Lane",
    "lat": 54.208569,
    "lon": -1.300241,
    "sequence": 37
  },
  {
    "name": "Thirkleby Park",
    "lat": 54.204535,
    "lon": -1.294239,
    "sequence": 38
  },
  {
    "name": "Carlton Husthwaite l e",
    "lat": 54.182202,
    "lon": -1.261476,
    "sequence": 39
  },
  {
    "name": "Birdforth House Farm",
    "lat": 54.176553,
    "lon": -1.257716,
    "sequence": 40
  },
  {
    "name": "Wentworth Avenue",
    "lat": 54.167904,
    "lon": -1.247133,
    "sequence": 41
  },
  {
    "name": "Westfield",
    "lat": 54.125805,
    "lon": -1.202328,
    "sequence": 42
  },
  {
    "name": "Primary School",
    "lat": 54.124301,
    "lon": -1.200551,
    "sequence": 43
  },
  {
    "name": "The New Inn",
    "lat": 54.120653,
    "lon": -1.195373,
    "sequence": 44
  },
  {
    "name": "Easingwold Market Place",
    "lat": 54.121621,
    "lon": -1.192004,
    "sequence": 45
  }
]