[
  {
    "name": "Beverley Bus Station",
    "lat": 53.844123,
    "lon": -0.431818,
    "sequence": 1
  },
  {
    "name": "Beverley New Walkergate",
    "lat": 53.84214,
    "lon": -0.426618,
    "sequence": 2
  },
  {
    "name": "Beverley Railway Stn",
    "lat": 53.841955,
    "lon": -0.423524,
    "sequence": 3
  },
  {
    "name": "Beverley Cherry Tree Lane",
    "lat": 53.842227,
    "lon": -0.419547,
    "sequence": 4
  },
  {
    "name": "Greenwood Avenue",
    "lat": 53.844623,
    "lon": -0.41859,
    "sequence": 5
  },
  {
    "name": "Humber Keel",
    "lat": 53.846368,
    "lon": -0.417293,
    "sequence": 6
  },
  {
    "name": "Beverley Burden Road",
    "lat": 53.850484,
    "lon": -0.419251,
    "sequence": 7
  },
  {
    "name": "Beverley Swinemoor Lane",
    "lat": 53.850756,
    "lon": -0.413312,
    "sequence": 8
  },
  {
    "name": "East Riding Community Hospital",
    "lat": 53.852602,
    "lon": -0.413591,
    "sequence": 9
  },
  {
    "name": "Warton Avenue",
    "lat": 53.846834,
    "lon": -0.412426,
    "sequence": 10
  },
  {
    "name": "Beverley Flemingate",
    "lat": 53.838474,
    "lon": -0.419247,
    "sequence": 11
  },
  {
    "name": "Beverley Armstrong Way",
    "lat": 53.839954,
    "lon": -0.422414,
    "sequence": 12
  },
  {
    "name": "Beverley Rail Station",
    "lat": 53.841878,
    "lon": -0.423755,
    "sequence": 13
  },
  {
    "name": "Beverley New Walkergate",
    "lat": 53.842081,
    "lon": -0.426954,
    "sequence": 14
  },
  {
    "name": "Beverley Bus Station",
    "lat": 53.84405,
    "lon": -0.431745,
    "sequence": 15
  },
  {
    "name": "Beverley Bus Station",
    "lat": 53.844123,
    "lon": -0.431818,
    "sequence": 16
  }
]