[
  {
    "name": "Holme on Spalding Moor Village Hall",
    "lat": 53.836392,
    "lon": -0.768493,
    "sequence": 1
  },
  {
    "name": "Primary School",
    "lat": 53.835604,
    "lon": -0.776722,
    "sequence": 2
  },
  {
    "name": "Pear Tree Farm",
    "lat": 53.836238,
    "lon": -0.785077,
    "sequence": 3
  },
  {
    "name": "Pullet Farm",
    "lat": 53.837162,
    "lon": -0.788531,
    "sequence": 4
  },
  {
    "name": "Foggathorpe Crossroads",
    "lat": 53.829374,
    "lon": -0.854956,
    "sequence": 5
  },
  {
    "name": "Harlthorpe Hall",
    "lat": 53.827357,
    "lon": -0.880247,
    "sequence": 6
  },
  {
    "name": "Highfield Corner House",
    "lat": 53.819187,
    "lon": -0.900759,
    "sequence": 7
  },
  {
    "name": "Bubwith Vine Gardens",
    "lat": 53.818158,
    "lon": -0.908153,
    "sequence": 8
  },
  {
    "name": "Bubwith Highfield Rd",
    "lat": 53.81816,
    "lon": -0.913333,
    "sequence": 9
  },
  {
    "name": "Bubwith (Chip Shop)",
    "lat": 53.818434,
    "lon": -0.916744,
    "sequence": 10
  },
  {
    "name": "Bubwith White Swan",
    "lat": 53.818727,
    "lon": -0.920336,
    "sequence": 11
  },
  {
    "name": "Derwent Cottage Farm l e",
    "lat": 53.820921,
    "lon": -0.939587,
    "sequence": 12
  },
  {
    "name": "Menthorpe Lane",
    "lat": 53.823461,
    "lon": -0.958665,
    "sequence": 13
  },
  {
    "name": "North Duffield Post Office",
    "lat": 53.825131,
    "lon": -0.960538,
    "sequence": 14
  },
  {
    "name": "King's Arms",
    "lat": 53.826371,
    "lon": -0.962588,
    "sequence": 15
  },
  {
    "name": "Village Green",
    "lat": 53.825578,
    "lon": -0.965434,
    "sequence": 16
  },
  {
    "name": "Seven Houses",
    "lat": 53.823393,
    "lon": -0.969574,
    "sequence": 17
  },
  {
    "name": "Cherry Tree Stores",
    "lat": 53.780463,
    "lon": -0.99685,
    "sequence": 18
  },
  {
    "name": "Newhay",
    "lat": 53.773454,
    "lon": -0.984347,
    "sequence": 19
  },
  {
    "name": "Council Houses",
    "lat": 53.76796,
    "lon": -0.971417,
    "sequence": 20
  },
  {
    "name": "Hemingbrough Chapelfields",
    "lat": 53.765798,
    "lon": -0.968739,
    "sequence": 21
  },
  {
    "name": "Playing Field",
    "lat": 53.766186,
    "lon": -0.973114,
    "sequence": 22
  },
  {
    "name": "Ashfield House",
    "lat": 53.766759,
    "lon": -0.976074,
    "sequence": 23
  },
  {
    "name": "Hemingbrough Chuch",
    "lat": 53.767676,
    "lon": -0.979192,
    "sequence": 24
  },
  {
    "name": "Fox And Pheasant",
    "lat": 53.769587,
    "lon": -0.978827,
    "sequence": 25
  },
  {
    "name": "Villa Close",
    "lat": 53.771166,
    "lon": -0.979562,
    "sequence": 26
  },
  {
    "name": "Priestfields",
    "lat": 53.776253,
    "lon": -0.992246,
    "sequence": 27
  },
  {
    "name": "Cliffe Institute",
    "lat": 53.776963,
    "lon": -0.994369,
    "sequence": 28
  },
  {
    "name": "Post Office",
    "lat": 53.777335,
    "lon": -0.996925,
    "sequence": 29
  },
  {
    "name": "Cliffe Crossroads",
    "lat": 53.779757,
    "lon": -0.997383,
    "sequence": 30
  },
  {
    "name": "Lane End",
    "lat": 53.785804,
    "lon": -1.012356,
    "sequence": 31
  },
  {
    "name": "Osgodby Wadkin Arms",
    "lat": 53.794664,
    "lon": -1.027436,
    "sequence": 32
  },
  {
    "name": "Bennymoor Lane",
    "lat": 53.795318,
    "lon": -1.029394,
    "sequence": 33
  },
  {
    "name": "Methodist Church",
    "lat": 53.796803,
    "lon": -1.034051,
    "sequence": 34
  },
  {
    "name": "Ardol Clock Tower",
    "lat": 53.788429,
    "lon": -1.050181,
    "sequence": 35
  },
  {
    "name": "Bocm Offices",
    "lat": 53.788262,
    "lon": -1.05527,
    "sequence": 36
  },
  {
    "name": "John Street",
    "lat": 53.786659,
    "lon": -1.061681,
    "sequence": 37
  },
  {
    "name": "Selby Bus Station",
    "lat": 53.782314,
    "lon": -1.065891,
    "sequence": 38
  }
]