[
  {
    "name": "Hedon (Inmans Estate)",
    "lat": 53.739179,
    "lon": -0.187865,
    "sequence": 1
  },
  {
    "name": "Hedon Fewson Garth",
    "lat": 53.739326,
    "lon": -0.191058,
    "sequence": 2
  },
  {
    "name": "Hedon Fleet Garth",
    "lat": 53.740857,
    "lon": -0.191842,
    "sequence": 3
  },
  {
    "name": "Hedon Albina Garth",
    "lat": 53.7424,
    "lon": -0.190441,
    "sequence": 4
  },
  {
    "name": "Hedon Haven Garth",
    "lat": 53.741873,
    "lon": -0.187689,
    "sequence": 5
  },
  {
    "name": "Hedon Guy Garth",
    "lat": 53.741256,
    "lon": -0.186138,
    "sequence": 6
  },
  {
    "name": "Hedon Greville Road",
    "lat": 53.73989,
    "lon": -0.184362,
    "sequence": 7
  },
  {
    "name": "Hedon St Mary's Drive",
    "lat": 53.738742,
    "lon": -0.186944,
    "sequence": 8
  },
  {
    "name": "Hedon Bond Street",
    "lat": 53.737467,
    "lon": -0.188803,
    "sequence": 9
  },
  {
    "name": "Hedon Adeliza Garth",
    "lat": 53.736826,
    "lon": -0.195199,
    "sequence": 10
  },
  {
    "name": "Hedon Thorn Road Corner",
    "lat": 53.739138,
    "lon": -0.195888,
    "sequence": 11
  },
  {
    "name": "Hedon Crossroads",
    "lat": 53.739399,
    "lon": -0.198333,
    "sequence": 12
  },
  {
    "name": "Hedon Sheriff Highway",
    "lat": 53.738978,
    "lon": -0.198988,
    "sequence": 13
  },
  {
    "name": "Hedon Sheriff Highway",
    "lat": 53.736821,
    "lon": -0.199626,
    "sequence": 14
  },
  {
    "name": "Paull (Back Road 1st Bus Stop)",
    "lat": 53.722701,
    "lon": -0.233635,
    "sequence": 15
  },
  {
    "name": "Paull Back Road",
    "lat": 53.720138,
    "lon": -0.232333,
    "sequence": 16
  },
  {
    "name": "Paull Back Road",
    "lat": 53.718879,
    "lon": -0.231689,
    "sequence": 17
  },
  {
    "name": "Paull Main Street",
    "lat": 53.719868,
    "lon": -0.235345,
    "sequence": 18
  },
  {
    "name": "Paull Main Street",
    "lat": 53.722302,
    "lon": -0.234576,
    "sequence": 19
  },
  {
    "name": "Salt End Hull Road",
    "lat": 53.742811,
    "lon": -0.235476,
    "sequence": 20
  },
  {
    "name": "Salt End Hull Road",
    "lat": 53.744224,
    "lon": -0.244167,
    "sequence": 21
  },
  {
    "name": "Somerden Road",
    "lat": 53.744981,
    "lon": -0.249822,
    "sequence": 22
  },
  {
    "name": "Queen Elizabeth Dock",
    "lat": 53.746012,
    "lon": -0.258924,
    "sequence": 23
  },
  {
    "name": "Elba Street",
    "lat": 53.746604,
    "lon": -0.263752,
    "sequence": 24
  },
  {
    "name": "King George Dock",
    "lat": 53.747498,
    "lon": -0.270267,
    "sequence": 25
  },
  {
    "name": "Marfleet Avenue",
    "lat": 53.747854,
    "lon": -0.276879,
    "sequence": 26
  },
  {
    "name": "Northern Gateway",
    "lat": 53.747854,
    "lon": -0.287541,
    "sequence": 27
  },
  {
    "name": "Alexandra Dock",
    "lat": 53.747595,
    "lon": -0.293967,
    "sequence": 28
  },
  {
    "name": "Lee Smith Street",
    "lat": 53.747616,
    "lon": -0.299865,
    "sequence": 29
  },
  {
    "name": "Ferries Street",
    "lat": 53.747543,
    "lon": -0.304251,
    "sequence": 30
  },
  {
    "name": "Woodhouse Street",
    "lat": 53.747384,
    "lon": -0.310142,
    "sequence": 31
  },
  {
    "name": "Victoria Dock",
    "lat": 53.744776,
    "lon": -0.311368,
    "sequence": 32
  },
  {
    "name": "Helm Drive",
    "lat": 53.743612,
    "lon": -0.31231,
    "sequence": 33
  },
  {
    "name": "Maldon Drive",
    "lat": 53.742849,
    "lon": -0.318194,
    "sequence": 34
  },
  {
    "name": "The Haven",
    "lat": 53.74277,
    "lon": -0.322185,
    "sequence": 35
  },
  {
    "name": "Drypool Bridge",
    "lat": 53.745187,
    "lon": -0.329155,
    "sequence": 36
  },
  {
    "name": "Alfred Gelder Street F",
    "lat": 53.744082,
    "lon": -0.33434,
    "sequence": 37
  },
  {
    "name": "Alfred Gelder Street G",
    "lat": 53.743791,
    "lon": -0.337369,
    "sequence": 38
  },
  {
    "name": "Bond Street E",
    "lat": 53.745981,
    "lon": -0.339709,
    "sequence": 39
  },
  {
    "name": "Albion Street D",
    "lat": 53.746537,
    "lon": -0.341583,
    "sequence": 40
  },
  {
    "name": "Hull Interchange",
    "lat": 53.744455,
    "lon": -0.348291,
    "sequence": 41
  }
]