[
  {
    "name": "Pocklington EY Depot",
    "lat": 53.929036,
    "lon": -0.779947,
    "sequence": 1
  },
  {
    "name": "Pocklington George Street",
    "lat": 53.93183,
    "lon": -0.781587,
    "sequence": 2
  },
  {
    "name": "Pocklington Barmby Road",
    "lat": 53.931711,
    "lon": -0.784865,
    "sequence": 3
  },
  {
    "name": "Pocklington Barmby Road",
    "lat": 53.931166395,
    "lon": -0.787942336,
    "sequence": 4
  },
  {
    "name": "Barmby Moor",
    "lat": 53.931826811,
    "lon": -0.815400519,
    "sequence": 5
  },
  {
    "name": "Barmby Moor Main Street",
    "lat": 53.930851423,
    "lon": -0.820408658,
    "sequence": 6
  },
  {
    "name": "Barmby Moor A1079",
    "lat": 53.932956,
    "lon": -0.838978,
    "sequence": 7
  },
  {
    "name": "Barmby Moor A1079",
    "lat": 53.936682,
    "lon": -0.856316,
    "sequence": 8
  },
  {
    "name": "A1079 Wilberfoss",
    "lat": 53.942615,
    "lon": -0.866834,
    "sequence": 9
  },
  {
    "name": "Wilberfoss A1079",
    "lat": 53.946593,
    "lon": -0.886625,
    "sequence": 10
  },
  {
    "name": "Wilberfoss Main Street",
    "lat": 53.947830894,
    "lon": -0.886393773,
    "sequence": 11
  },
  {
    "name": "Wilberfoss Main Street",
    "lat": 53.948550596,
    "lon": -0.889376347,
    "sequence": 12
  },
  {
    "name": "Wilberfoss Post Office",
    "lat": 53.948800983,
    "lon": -0.892158135,
    "sequence": 13
  },
  {
    "name": "Wilberfoss Main Street",
    "lat": 53.948399779,
    "lon": -0.896419949,
    "sequence": 14
  },
  {
    "name": "Catton Lane End",
    "lat": 53.952651,
    "lon": -0.91717,
    "sequence": 15
  },
  {
    "name": "Kexby Bridge",
    "lat": 53.949982,
    "lon": -0.93429,
    "sequence": 16
  },
  {
    "name": "Scoreby Lodge",
    "lat": 53.953039205,
    "lon": -0.959035845,
    "sequence": 17
  },
  {
    "name": "Four Lane Ends",
    "lat": 53.954925,
    "lon": -0.974457,
    "sequence": 18
  },
  {
    "name": "Grimston Court",
    "lat": 53.957136,
    "lon": -1.004411,
    "sequence": 19
  },
  {
    "name": "Bingley House",
    "lat": 53.95603,
    "lon": -1.01416,
    "sequence": 20
  },
  {
    "name": "Canham Grove",
    "lat": 53.953591,
    "lon": -1.032642,
    "sequence": 21
  },
  {
    "name": "Osbaldwick Pinelands Way",
    "lat": 53.953844,
    "lon": -1.037223,
    "sequence": 22
  },
  {
    "name": "Archbishop Holgate's School",
    "lat": 53.953621,
    "lon": -1.04087,
    "sequence": 23
  },
  {
    "name": "Windmill Lane",
    "lat": 53.953723,
    "lon": -1.046872,
    "sequence": 24
  },
  {
    "name": "Milson Grove",
    "lat": 53.953776,
    "lon": -1.051305,
    "sequence": 25
  },
  {
    "name": "Garrow Hill Avenue",
    "lat": 53.953752,
    "lon": -1.056273,
    "sequence": 26
  },
  {
    "name": "Abbotsford Road",
    "lat": 53.954252,
    "lon": -1.060377,
    "sequence": 27
  },
  {
    "name": "St Joseph's Convent",
    "lat": 53.954427,
    "lon": -1.0656,
    "sequence": 28
  },
  {
    "name": "James Street",
    "lat": 53.955856,
    "lon": -1.067823,
    "sequence": 29
  },
  {
    "name": "Morrison's",
    "lat": 53.959628473,
    "lon": -1.069842426,
    "sequence": 30
  },
  {
    "name": "York, Peasholme Green, opp Church",
    "lat": 53.960630374,
    "lon": -1.075047934,
    "sequence": 31
  },
  {
    "name": "York Stonebow",
    "lat": 53.959019877,
    "lon": -1.078345112,
    "sequence": 32
  },
  {
    "name": "York, Low Ousegate, TF",
    "lat": 53.957483015,
    "lon": -1.08305776,
    "sequence": 33
  },
  {
    "name": "Victoria Bar",
    "lat": 53.95335559,
    "lon": -1.08634843,
    "sequence": 34
  },
  {
    "name": "Nunnery Lane Car Park",
    "lat": 53.954974424,
    "lon": -1.090031447,
    "sequence": 35
  },
  {
    "name": "Queen Street",
    "lat": 53.955815827,
    "lon": -1.091948565,
    "sequence": 36
  },
  {
    "name": "York Railway Station",
    "lat": 53.958127107,
    "lon": -1.09212696,
    "sequence": 37
  }
]