[
  {
    "name": "Raskelf",
    "lat": 54.133137401,
    "lon": -1.24825333,
    "sequence": 1
  },
  {
    "name": "The Oak Tree",
    "lat": 54.125215194,
    "lon": -1.329770103,
    "sequence": 2
  },
  {
    "name": "Helperby",
    "lat": 54.123328807,
    "lon": -1.32995354,
    "sequence": 3
  },
  {
    "name": "Tholthorpe",
    "lat": 54.095978954,
    "lon": -1.27707545,
    "sequence": 4
  },
  {
    "name": "Flawith Alne Road",
    "lat": 54.082544459,
    "lon": -1.264086634,
    "sequence": 5
  },
  {
    "name": "The Aldwark Arms",
    "lat": 54.065942994,
    "lon": -1.289331876,
    "sequence": 6
  },
  {
    "name": "opp Hunters Lodge",
    "lat": 54.041561082,
    "lon": -1.27459912,
    "sequence": 7
  },
  {
    "name": "Linton Half Moon St",
    "lat": 54.04054808,
    "lon": -1.250107731,
    "sequence": 8
  },
  {
    "name": "RAF Linton",
    "lat": 54.040173438,
    "lon": -1.244815679,
    "sequence": 9
  },
  {
    "name": "Linton Meadows",
    "lat": 54.039412015,
    "lon": -1.24093562,
    "sequence": 10
  },
  {
    "name": "Linton Woods",
    "lat": 54.038693241,
    "lon": -1.235298898,
    "sequence": 11
  },
  {
    "name": "Newton Village Hall",
    "lat": 54.034039257,
    "lon": -1.218934152,
    "sequence": 12
  },
  {
    "name": "Newton Park",
    "lat": 54.033880311,
    "lon": -1.21543373,
    "sequence": 13
  },
  {
    "name": "Moor Lane \\ Newton Sidings",
    "lat": 54.040519252,
    "lon": -1.189188449,
    "sequence": 14
  },
  {
    "name": "Shipton Church",
    "lat": 54.022876,
    "lon": -1.157483,
    "sequence": 15
  },
  {
    "name": "Shipton Dawnay Arms",
    "lat": 54.02116,
    "lon": -1.157594,
    "sequence": 16
  },
  {
    "name": "South Garth",
    "lat": 54.017884,
    "lon": -1.156958,
    "sequence": 17
  },
  {
    "name": "St Giles Road",
    "lat": 53.998932,
    "lon": -1.135984,
    "sequence": 18
  },
  {
    "name": "Fairfield Cottages",
    "lat": 53.996423,
    "lon": -1.133259,
    "sequence": 19
  },
  {
    "name": "Fairfield Manor",
    "lat": 53.993815,
    "lon": -1.130613,
    "sequence": 20
  },
  {
    "name": "Riverside Farm",
    "lat": 53.989973,
    "lon": -1.127475,
    "sequence": 21
  },
  {
    "name": "Manor Lane",
    "lat": 53.985557,
    "lon": -1.120949,
    "sequence": 22
  },
  {
    "name": "Howard Drive",
    "lat": 53.982801,
    "lon": -1.117759,
    "sequence": 23
  },
  {
    "name": "Alwyne Drive",
    "lat": 53.979449,
    "lon": -1.112935,
    "sequence": 24
  },
  {
    "name": "East Cottages",
    "lat": 53.977163,
    "lon": -1.108836,
    "sequence": 25
  },
  {
    "name": "Clifton Park",
    "lat": 53.974407,
    "lon": -1.105647,
    "sequence": 26
  },
  {
    "name": "Ouse Lea",
    "lat": 53.971464,
    "lon": -1.100329,
    "sequence": 27
  },
  {
    "name": "Clifton Green",
    "lat": 53.968665,
    "lon": -1.095038,
    "sequence": 28
  },
  {
    "name": "St Peter's School",
    "lat": 53.966475,
    "lon": -1.091869,
    "sequence": 29
  },
  {
    "name": "Bootham Park",
    "lat": 53.965099,
    "lon": -1.089323,
    "sequence": 30
  },
  {
    "name": "Exhibition Square",
    "lat": 53.961976,
    "lon": -1.085337,
    "sequence": 31
  },
  {
    "name": "Station Road",
    "lat": 53.958816,
    "lon": -1.089323,
    "sequence": 32
  },
  {
    "name": "Rail Station",
    "lat": 53.957792876,
    "lon": -1.091905614,
    "sequence": 33
  },
  {
    "name": "Blossom Street",
    "lat": 53.954829029,
    "lon": -1.092198589,
    "sequence": 34
  },
  {
    "name": "The Mount",
    "lat": 53.951672999,
    "lon": -1.096808081,
    "sequence": 35
  },
  {
    "name": "Mount Vale",
    "lat": 53.949729245,
    "lon": -1.098891883,
    "sequence": 36
  },
  {
    "name": "Pulleyn Drive",
    "lat": 53.945824445,
    "lon": -1.101962282,
    "sequence": 37
  },
  {
    "name": "Nelson's Lane",
    "lat": 53.944188879,
    "lon": -1.103201,
    "sequence": 38
  },
  {
    "name": "The Marriott Hotel",
    "lat": 53.941329392,
    "lon": -1.105440826,
    "sequence": 39
  },
  {
    "name": "St Edward's Church",
    "lat": 53.939936089,
    "lon": -1.106628397,
    "sequence": 40
  },
  {
    "name": "Slingsby Grove",
    "lat": 53.938017647,
    "lon": -1.10851258,
    "sequence": 41
  },
  {
    "name": "The Horseshoe",
    "lat": 53.935713087,
    "lon": -1.110450496,
    "sequence": 42
  },
  {
    "name": "Old Moor Lane",
    "lat": 53.934212791,
    "lon": -1.111761864,
    "sequence": 43
  },
  {
    "name": "St Leonard's Hospice",
    "lat": 53.932292355,
    "lon": -1.113386664,
    "sequence": 44
  },
  {
    "name": "York College",
    "lat": 53.929779112,
    "lon": -1.115069542,
    "sequence": 45
  },
  {
    "name": "Askham Bryan College",
    "lat": 53.922117231,
    "lon": -1.155720954,
    "sequence": 46
  }
]