[
  {
    "name": "Halifax Bus Station",
    "lat": 53.724569878,
    "lon": -1.85906355,
    "sequence": 1
  },
  {
    "name": "Northgate",
    "lat": 53.726889891,
    "lon": -1.859995489,
    "sequence": 2
  },
  {
    "name": "Beacon Hill Road Godley Rd",
    "lat": 53.727844646,
    "lon": -1.85414191,
    "sequence": 3
  },
  {
    "name": "Beacon Hill Road Godley Branch Rd",
    "lat": 53.726383448,
    "lon": -1.849979061,
    "sequence": 4
  },
  {
    "name": "Beacon Hill Rd Southowram Bank",
    "lat": 53.719656455,
    "lon": -1.846881324,
    "sequence": 5
  },
  {
    "name": "Beacon Hill Rd Green Lane",
    "lat": 53.718873915,
    "lon": -1.846429563,
    "sequence": 6
  },
  {
    "name": "Bank Top Marsh Lane",
    "lat": 53.717451091,
    "lon": -1.8443285,
    "sequence": 7
  },
  {
    "name": "Bank Top Common Lane",
    "lat": 53.715911006,
    "lon": -1.841940126,
    "sequence": 8
  },
  {
    "name": "Law Lane Pinnar Ln",
    "lat": 53.714720759,
    "lon": -1.839065739,
    "sequence": 9
  },
  {
    "name": "Law Lane",
    "lat": 53.713897728,
    "lon": -1.835296151,
    "sequence": 10
  },
  {
    "name": "Law Lane Whitley Ln",
    "lat": 53.713750737,
    "lon": -1.832993704,
    "sequence": 11
  },
  {
    "name": "Law Lane Rustic Ave",
    "lat": 53.711591977,
    "lon": -1.831835638,
    "sequence": 12
  },
  {
    "name": "Law Lane Post Office",
    "lat": 53.710073018,
    "lon": -1.831856836,
    "sequence": 13
  },
  {
    "name": "Southowram Towngate",
    "lat": 53.707815548,
    "lon": -1.830820519,
    "sequence": 14
  },
  {
    "name": "Cain Lane",
    "lat": 53.709667684,
    "lon": -1.8312373,
    "sequence": 15
  },
  {
    "name": "Cain Lane Cromwell Rd",
    "lat": 53.710220752,
    "lon": -1.828280805,
    "sequence": 16
  },
  {
    "name": "Church Lane Chapel Ln",
    "lat": 53.709199157,
    "lon": -1.824179358,
    "sequence": 17
  },
  {
    "name": "Church Lane St Anne's Church",
    "lat": 53.708912229,
    "lon": -1.818605458,
    "sequence": 18
  },
  {
    "name": "Church Lane Stoney Ln",
    "lat": 53.708728315,
    "lon": -1.815879311,
    "sequence": 19
  },
  {
    "name": "Church Lane Birks Royd",
    "lat": 53.707471893,
    "lon": -1.811324879,
    "sequence": 20
  },
  {
    "name": "Brier Lane",
    "lat": 53.707045425,
    "lon": -1.808781744,
    "sequence": 21
  },
  {
    "name": "St Annes In The Grove",
    "lat": 53.707005096,
    "lon": -1.806055101,
    "sequence": 22
  },
  {
    "name": "Marshalls Works",
    "lat": 53.70662988,
    "lon": -1.801951472,
    "sequence": 23
  },
  {
    "name": "Elland Road Wilton St",
    "lat": 53.705609801,
    "lon": -1.793988127,
    "sequence": 24
  },
  {
    "name": "Brighouse Wood Road",
    "lat": 53.703419754,
    "lon": -1.79056027,
    "sequence": 25
  },
  {
    "name": "Elland Rd Halifax Road",
    "lat": 53.702434059,
    "lon": -1.787156994,
    "sequence": 26
  },
  {
    "name": "Brighouse Bus Station",
    "lat": 53.702602473,
    "lon": -1.780854802,
    "sequence": 27
  }
]