[
  {
    "name": "Bridlington Bus Station",
    "lat": 54.08386793,
    "lon": -0.189665722,
    "sequence": 1
  },
  {
    "name": "Bridlington Promenade",
    "lat": 54.085165905,
    "lon": -0.186918394,
    "sequence": 2
  },
  {
    "name": "Bridlington Flamborough Rd",
    "lat": 54.087112914,
    "lon": -0.185488027,
    "sequence": 3
  },
  {
    "name": "Bridlington Flamborough Rd",
    "lat": 54.089735266,
    "lon": -0.185924047,
    "sequence": 4
  },
  {
    "name": "Bridlington Fortyfoot",
    "lat": 54.093465513,
    "lon": -0.187703343,
    "sequence": 5
  },
  {
    "name": "Bridlington Fortyfoot",
    "lat": 54.096095227,
    "lon": -0.18803219,
    "sequence": 6
  },
  {
    "name": "Bridlington Marton Road",
    "lat": 54.098295284,
    "lon": -0.191469109,
    "sequence": 7
  },
  {
    "name": "Bridlington Marton Road",
    "lat": 54.097186313,
    "lon": -0.199638039,
    "sequence": 8
  },
  {
    "name": "Bridlington Marton Road",
    "lat": 54.096793517,
    "lon": -0.20222428,
    "sequence": 9
  },
  {
    "name": "Bridlington Marton Road",
    "lat": 54.095721992,
    "lon": -0.206919577,
    "sequence": 10
  },
  {
    "name": "Bridlington (New Pasture Lane)",
    "lat": 54.097810979,
    "lon": -0.211386893,
    "sequence": 11
  },
  {
    "name": "Huntow Cottages",
    "lat": 54.13114349,
    "lon": -0.227971252,
    "sequence": 12
  },
  {
    "name": "The Dotterel",
    "lat": 54.155925776,
    "lon": -0.26871648,
    "sequence": 13
  },
  {
    "name": "Reighton (Watson`s Lane)",
    "lat": 54.16318404,
    "lon": -0.272150895,
    "sequence": 14
  },
  {
    "name": "Arie Hill",
    "lat": 54.179819829,
    "lon": -0.290259268,
    "sequence": 15
  },
  {
    "name": "Primrose Valley Holiday Village (outside)",
    "lat": 54.183924846,
    "lon": -0.293231509,
    "sequence": 16
  },
  {
    "name": "Primrose Valley Garage",
    "lat": 54.185930499,
    "lon": -0.297761922,
    "sequence": 17
  },
  {
    "name": "Sheep Dyke",
    "lat": 54.181912431,
    "lon": -0.313726194,
    "sequence": 18
  },
  {
    "name": "Horseshoe Inn",
    "lat": 54.181834852,
    "lon": -0.316533664,
    "sequence": 19
  },
  {
    "name": "Hungate Court",
    "lat": 54.180483483,
    "lon": -0.319306048,
    "sequence": 20
  },
  {
    "name": "Hunmanby (Church)",
    "lat": 54.180584147,
    "lon": -0.322238895,
    "sequence": 21
  },
  {
    "name": "Muston Road End",
    "lat": 54.182438467,
    "lon": -0.325014144,
    "sequence": 22
  },
  {
    "name": "Wold View",
    "lat": 54.197803572,
    "lon": -0.32269117,
    "sequence": 23
  },
  {
    "name": "Muston (Ship Inn)",
    "lat": 54.200753615,
    "lon": -0.321529172,
    "sequence": 24
  },
  {
    "name": "Greame Cottage",
    "lat": 54.201313831,
    "lon": -0.316585112,
    "sequence": 25
  },
  {
    "name": "Pond Farm",
    "lat": 54.201624025,
    "lon": -0.31177376,
    "sequence": 26
  },
  {
    "name": "Mill Farm",
    "lat": 54.200455661,
    "lon": -0.30538236,
    "sequence": 27
  },
  {
    "name": "Secondary School",
    "lat": 54.205170477,
    "lon": -0.301892849,
    "sequence": 28
  },
  {
    "name": "Grange Avenue",
    "lat": 54.20699577,
    "lon": -0.300023969,
    "sequence": 29
  },
  {
    "name": "Wharfedale",
    "lat": 54.208913459,
    "lon": -0.297062397,
    "sequence": 30
  },
  {
    "name": "Filey Bus Station",
    "lat": 54.209839531,
    "lon": -0.291365857,
    "sequence": 31
  },
  {
    "name": "The Croft",
    "lat": 54.213008837,
    "lon": -0.291741114,
    "sequence": 32
  },
  {
    "name": "Grove Road",
    "lat": 54.213661515,
    "lon": -0.295302791,
    "sequence": 33
  },
  {
    "name": "Rowan Avenue",
    "lat": 54.214274261,
    "lon": -0.298590169,
    "sequence": 34
  },
  {
    "name": "Copse Hill",
    "lat": 54.21575604,
    "lon": -0.303359248,
    "sequence": 35
  },
  {
    "name": "Filey Bird Centre",
    "lat": 54.218414129,
    "lon": -0.312377271,
    "sequence": 36
  },
  {
    "name": "Muston Crossing",
    "lat": 54.219026855,
    "lon": -0.316340137,
    "sequence": 37
  },
  {
    "name": "Carless Lane",
    "lat": 54.222242809,
    "lon": -0.324584419,
    "sequence": 38
  },
  {
    "name": "Gristhorpe (Filey Road)",
    "lat": 54.223144347,
    "lon": -0.330606974,
    "sequence": 39
  },
  {
    "name": "Lebberston Touring Park",
    "lat": 54.225095403,
    "lon": -0.343674709,
    "sequence": 40
  },
  {
    "name": "Lebberston (Ox Inn)",
    "lat": 54.226650592,
    "lon": -0.347616357,
    "sequence": 41
  },
  {
    "name": "Killerby Lane",
    "lat": 54.229396245,
    "lon": -0.36601131,
    "sequence": 42
  },
  {
    "name": "Cayton (Station Road)",
    "lat": 54.232550617,
    "lon": -0.376317183,
    "sequence": 43
  },
  {
    "name": "Beck Hole",
    "lat": 54.233836596,
    "lon": -0.379703586,
    "sequence": 44
  },
  {
    "name": "Cayton Main Street",
    "lat": 54.235334375,
    "lon": -0.384815764,
    "sequence": 45
  },
  {
    "name": "Carr House Lane",
    "lat": 54.235587435,
    "lon": -0.388948724,
    "sequence": 46
  },
  {
    "name": "Havers Hill",
    "lat": 54.236170898,
    "lon": -0.392255659,
    "sequence": 47
  },
  {
    "name": "Police Station",
    "lat": 54.238698,
    "lon": -0.407901,
    "sequence": 48
  },
  {
    "name": "Dunslow Road",
    "lat": 54.239273,
    "lon": -0.413373,
    "sequence": 49
  },
  {
    "name": "Eastfield Industrial Estate",
    "lat": 54.238064,
    "lon": -0.410949,
    "sequence": 50
  },
  {
    "name": "Seamer Station",
    "lat": 54.240841,
    "lon": -0.414341,
    "sequence": 51
  },
  {
    "name": "Byward Drive",
    "lat": 54.241332,
    "lon": -0.420982,
    "sequence": 52
  },
  {
    "name": "Mere Valley",
    "lat": 54.243752,
    "lon": -0.419769,
    "sequence": 53
  },
  {
    "name": "Stoney Haggs Road",
    "lat": 54.254819,
    "lon": -0.419254,
    "sequence": 54
  },
  {
    "name": "Edgehill (B&Q)",
    "lat": 54.260296,
    "lon": -0.416711,
    "sequence": 55
  },
  {
    "name": "Edgehill Road",
    "lat": 54.26428,
    "lon": -0.416236,
    "sequence": 56
  },
  {
    "name": "Seamer Road LiDL",
    "lat": 54.266209,
    "lon": -0.416653,
    "sequence": 57
  },
  {
    "name": "Rosebery Avenue",
    "lat": 54.270378,
    "lon": -0.415803,
    "sequence": 58
  },
  {
    "name": "Seamer Street",
    "lat": 54.272139,
    "lon": -0.415735,
    "sequence": 59
  },
  {
    "name": "Westbourne Park",
    "lat": 54.274718,
    "lon": -0.416404,
    "sequence": 60
  },
  {
    "name": "Falsgrave Road",
    "lat": 54.276964234,
    "lon": -0.413599213,
    "sequence": 61
  },
  {
    "name": "West Square",
    "lat": 54.279863,
    "lon": -0.406438,
    "sequence": 62
  }
]