[
  {
    "name": "Discovery Centre",
    "lat": 53.610195,
    "lon": 0.144986,
    "sequence": 1
  },
  {
    "name": "Easington Caravan Park",
    "lat": 53.648286,
    "lon": 0.123299,
    "sequence": 2
  },
  {
    "name": "Easington Square",
    "lat": 53.650282,
    "lon": 0.115713,
    "sequence": 3
  },
  {
    "name": "Easington Dimlington Road",
    "lat": 53.651853,
    "lon": 0.114293,
    "sequence": 4
  },
  {
    "name": "Skeffling",
    "lat": 53.653532,
    "lon": 0.073837,
    "sequence": 5
  },
  {
    "name": "Weeton",
    "lat": 53.660463,
    "lon": 0.049839,
    "sequence": 6
  },
  {
    "name": "Welwick",
    "lat": 53.668304,
    "lon": 0.031782,
    "sequence": 7
  },
  {
    "name": "Patrington",
    "lat": 53.684221,
    "lon": -0.011928,
    "sequence": 8
  },
  {
    "name": "Patrington Northside",
    "lat": 53.684238,
    "lon": -0.012397,
    "sequence": 9
  },
  {
    "name": "Patrington (Pump Street)",
    "lat": 53.684912,
    "lon": -0.009094,
    "sequence": 10
  },
  {
    "name": "Patrington Fairview Lodges",
    "lat": 53.693977,
    "lon": 0.010055,
    "sequence": 11
  },
  {
    "name": "Hollym Toffling Farm",
    "lat": 53.696605,
    "lon": 0.018451,
    "sequence": 12
  },
  {
    "name": "Hollym Toffling Farm",
    "lat": 53.697728,
    "lon": 0.023292,
    "sequence": 13
  },
  {
    "name": "Hollym (Cross Roads)",
    "lat": 53.705314,
    "lon": 0.038701,
    "sequence": 14
  },
  {
    "name": "Withernsea A1033",
    "lat": 53.711296,
    "lon": 0.040097,
    "sequence": 15
  },
  {
    "name": "Withernsea Hollym Road",
    "lat": 53.717216,
    "lon": 0.040307,
    "sequence": 16
  },
  {
    "name": "Withernsea Hollym Road",
    "lat": 53.719435,
    "lon": 0.039884,
    "sequence": 17
  },
  {
    "name": "Hollym Road Withernsea",
    "lat": 53.720934,
    "lon": 0.039502,
    "sequence": 18
  },
  {
    "name": "Withernsea Queen Street",
    "lat": 53.722819,
    "lon": 0.038108,
    "sequence": 19
  },
  {
    "name": "Withernsea Queen Street",
    "lat": 53.725872,
    "lon": 0.035618,
    "sequence": 20
  },
  {
    "name": "Withernsea Queen Street",
    "lat": 53.727862,
    "lon": 0.035472,
    "sequence": 21
  },
  {
    "name": "Withernsea (Pier Rd/Mem.Ave)",
    "lat": 53.729877,
    "lon": 0.034341,
    "sequence": 22
  }
]