[
  {
    "name": "Easington Caravan Park",
    "lat": 53.648286,
    "lon": 0.123299,
    "sequence": 1
  },
  {
    "name": "Easington Square",
    "lat": 53.650282,
    "lon": 0.115713,
    "sequence": 2
  },
  {
    "name": "Easington Dimlington Road",
    "lat": 53.651853,
    "lon": 0.114293,
    "sequence": 3
  },
  {
    "name": "Skeffling",
    "lat": 53.653532,
    "lon": 0.073837,
    "sequence": 4
  },
  {
    "name": "Weeton",
    "lat": 53.660463,
    "lon": 0.049839,
    "sequence": 5
  },
  {
    "name": "Welwick",
    "lat": 53.668304,
    "lon": 0.031782,
    "sequence": 6
  },
  {
    "name": "Holmpton",
    "lat": 53.690529,
    "lon": 0.06531,
    "sequence": 7
  },
  {
    "name": "Golden Sands Chalet Park",
    "lat": 53.718577,
    "lon": 0.04489,
    "sequence": 8
  },
  {
    "name": "Withernsea Queen Street",
    "lat": 53.722819,
    "lon": 0.038108,
    "sequence": 9
  },
  {
    "name": "Withernsea Queen Street",
    "lat": 53.725872,
    "lon": 0.035618,
    "sequence": 10
  },
  {
    "name": "Withernsea Queen Street",
    "lat": 53.727862,
    "lon": 0.035472,
    "sequence": 11
  },
  {
    "name": "Withernsea (Memorial Avenue)",
    "lat": 53.730161,
    "lon": 0.034537,
    "sequence": 12
  }
]