[
  {
    "name": "Bridlington Bus Station",
    "lat": 54.08386793,
    "lon": -0.189665722,
    "sequence": 1
  },
  {
    "name": "Bridlington Promenade",
    "lat": 54.085165905,
    "lon": -0.186918394,
    "sequence": 2
  },
  {
    "name": "Bridlington Flamborough Rd",
    "lat": 54.087112914,
    "lon": -0.185488027,
    "sequence": 3
  },
  {
    "name": "Bridlington Flamborough Rd",
    "lat": 54.089735266,
    "lon": -0.185924047,
    "sequence": 4
  },
  {
    "name": "Bridlington Fortyfoot",
    "lat": 54.093465513,
    "lon": -0.187703343,
    "sequence": 5
  },
  {
    "name": "Bridlington Fortyfoot",
    "lat": 54.096095227,
    "lon": -0.18803219,
    "sequence": 6
  },
  {
    "name": "Bridlington Marton Road",
    "lat": 54.098295284,
    "lon": -0.191469109,
    "sequence": 7
  },
  {
    "name": "Bridlington Marton Road",
    "lat": 54.097186313,
    "lon": -0.199638039,
    "sequence": 8
  },
  {
    "name": "Bridlington Marton Road",
    "lat": 54.096793517,
    "lon": -0.20222428,
    "sequence": 9
  },
  {
    "name": "Bridlington Marton Road",
    "lat": 54.095721992,
    "lon": -0.206919577,
    "sequence": 10
  },
  {
    "name": "Bridlington (New Pasture Lane)",
    "lat": 54.097810979,
    "lon": -0.211386893,
    "sequence": 11
  },
  {
    "name": "Huntow Cottages",
    "lat": 54.13114349,
    "lon": -0.227971252,
    "sequence": 12
  },
  {
    "name": "The Dotterel",
    "lat": 54.155925776,
    "lon": -0.26871648,
    "sequence": 13
  },
  {
    "name": "Reighton (Watson`s Lane)",
    "lat": 54.16318404,
    "lon": -0.272150895,
    "sequence": 14
  },
  {
    "name": "Reighton Sands Holiday Village",
    "lat": 54.166758,
    "lon": -0.254477,
    "sequence": 15
  },
  {
    "name": "Arie Hill",
    "lat": 54.179819829,
    "lon": -0.290259268,
    "sequence": 16
  },
  {
    "name": "Primrose Valley Holiday Village (outside)",
    "lat": 54.183924846,
    "lon": -0.293231509,
    "sequence": 17
  },
  {
    "name": "Nursing Home",
    "lat": 54.187316,
    "lon": -0.294011,
    "sequence": 18
  },
  {
    "name": "Primrose Valley/Primrose Drive",
    "lat": 54.187913,
    "lon": -0.288592,
    "sequence": 19
  },
  {
    "name": "Primrose Valley Holiday Village",
    "lat": 54.190316,
    "lon": -0.281841,
    "sequence": 20
  },
  {
    "name": "Primrose Valley/Primrose Drive",
    "lat": 54.188053,
    "lon": -0.288341,
    "sequence": 21
  },
  {
    "name": "Nursing Home",
    "lat": 54.187235,
    "lon": -0.294015,
    "sequence": 22
  },
  {
    "name": "Royal Oak",
    "lat": 54.191387,
    "lon": -0.299071,
    "sequence": 23
  },
  {
    "name": "Mill Farm",
    "lat": 54.200455661,
    "lon": -0.30538236,
    "sequence": 24
  },
  {
    "name": "Secondary School",
    "lat": 54.205170477,
    "lon": -0.301892849,
    "sequence": 25
  },
  {
    "name": "Grange Avenue",
    "lat": 54.20699577,
    "lon": -0.300023969,
    "sequence": 26
  },
  {
    "name": "Wharfedale",
    "lat": 54.208913459,
    "lon": -0.297062397,
    "sequence": 27
  },
  {
    "name": "Filey Bus Station",
    "lat": 54.209839531,
    "lon": -0.291365857,
    "sequence": 28
  },
  {
    "name": "The Croft",
    "lat": 54.213008837,
    "lon": -0.291741114,
    "sequence": 29
  },
  {
    "name": "Grove Road",
    "lat": 54.213661515,
    "lon": -0.295302791,
    "sequence": 30
  },
  {
    "name": "Rowan Avenue",
    "lat": 54.214274261,
    "lon": -0.298590169,
    "sequence": 31
  },
  {
    "name": "Copse Hill",
    "lat": 54.21575604,
    "lon": -0.303359248,
    "sequence": 32
  },
  {
    "name": "Filey Bird Centre",
    "lat": 54.218414129,
    "lon": -0.312377271,
    "sequence": 33
  },
  {
    "name": "Muston Crossing",
    "lat": 54.219026855,
    "lon": -0.316340137,
    "sequence": 34
  },
  {
    "name": "Carless Lane",
    "lat": 54.222242809,
    "lon": -0.324584419,
    "sequence": 35
  },
  {
    "name": "Blue Dolphin",
    "lat": 54.229577,
    "lon": -0.32194,
    "sequence": 36
  },
  {
    "name": "Blue Dolphin Holiday Village",
    "lat": 54.230564,
    "lon": -0.326349,
    "sequence": 37
  },
  {
    "name": "Blue Dolphin",
    "lat": 54.230995,
    "lon": -0.328955,
    "sequence": 38
  },
  {
    "name": "Crow's Nest",
    "lat": 54.227887,
    "lon": -0.339482,
    "sequence": 39
  },
  {
    "name": "Crows Nest/Flower of May",
    "lat": 54.22908,
    "lon": -0.342595,
    "sequence": 40
  },
  {
    "name": "Killerby Lane",
    "lat": 54.229396245,
    "lon": -0.36601131,
    "sequence": 41
  },
  {
    "name": "Cayton (Station Road)",
    "lat": 54.232550617,
    "lon": -0.376317183,
    "sequence": 42
  },
  {
    "name": "Cayton School",
    "lat": 54.234084036,
    "lon": -0.378052158,
    "sequence": 43
  },
  {
    "name": "Cayton Village Caravan Park",
    "lat": 54.235496647,
    "lon": -0.3761555,
    "sequence": 44
  },
  {
    "name": "Cayton Bay",
    "lat": 54.239385926,
    "lon": -0.369296885,
    "sequence": 45
  },
  {
    "name": "Cayton Bay (Holiday Village)",
    "lat": 54.240614982,
    "lon": -0.367130701,
    "sequence": 46
  },
  {
    "name": "Wheatcroft Avenue",
    "lat": 54.263176,
    "lon": -0.393201,
    "sequence": 47
  },
  {
    "name": "Holbeck Road",
    "lat": 54.266786,
    "lon": -0.398404,
    "sequence": 48
  },
  {
    "name": "Avenue Victoria",
    "lat": 54.270363,
    "lon": -0.401767,
    "sequence": 49
  },
  {
    "name": "St Andrews Church",
    "lat": 54.274232,
    "lon": -0.402754,
    "sequence": 50
  },
  {
    "name": "Valley Bridge",
    "lat": 54.27847,
    "lon": -0.403742,
    "sequence": 51
  },
  {
    "name": "Railway Station",
    "lat": 54.279795773,
    "lon": -0.406117519,
    "sequence": 52
  }
]