[
  {
    "name": "York Merchantgate",
    "lat": 53.957426,
    "lon": -1.077893,
    "sequence": 1
  },
  {
    "name": "St Denys' Road",
    "lat": 53.956249,
    "lon": -1.076791,
    "sequence": 2
  },
  {
    "name": "Dixon Lane",
    "lat": 53.95543,
    "lon": -1.076763,
    "sequence": 3
  },
  {
    "name": "The Barbican Coach Stop",
    "lat": 53.95345,
    "lon": -1.075192,
    "sequence": 4
  },
  {
    "name": "Fawcett Street",
    "lat": 53.95336,
    "lon": -1.075224,
    "sequence": 5
  },
  {
    "name": "Howard Street",
    "lat": 53.949325,
    "lon": -1.07414,
    "sequence": 6
  },
  {
    "name": "Alma Terrace",
    "lat": 53.947355,
    "lon": -1.073848,
    "sequence": 7
  },
  {
    "name": "Imphal Barracks",
    "lat": 53.943527,
    "lon": -1.073949,
    "sequence": 8
  },
  {
    "name": "Broadway West",
    "lat": 53.940184,
    "lon": -1.074038,
    "sequence": 9
  },
  {
    "name": "Fulford Church",
    "lat": 53.938418,
    "lon": -1.073483,
    "sequence": 10
  },
  {
    "name": "Main Street",
    "lat": 53.935781,
    "lon": -1.071866,
    "sequence": 11
  },
  {
    "name": "Pasture Farm",
    "lat": 53.931816,
    "lon": -1.070598,
    "sequence": 12
  },
  {
    "name": "Naburn Lane End",
    "lat": 53.928128,
    "lon": -1.06902,
    "sequence": 13
  },
  {
    "name": "York Designer Outlet",
    "lat": 53.922649,
    "lon": -1.074121,
    "sequence": 14
  },
  {
    "name": "Persimmon House",
    "lat": 53.922919,
    "lon": -1.064918,
    "sequence": 15
  },
  {
    "name": "Forest Farm",
    "lat": 53.918492,
    "lon": -1.059733,
    "sequence": 16
  },
  {
    "name": "Crockey Hill",
    "lat": 53.911288,
    "lon": -1.045448,
    "sequence": 17
  },
  {
    "name": "North Lane",
    "lat": 53.894178,
    "lon": -0.972871,
    "sequence": 18
  },
  {
    "name": "Walker Lane",
    "lat": 53.895402,
    "lon": -0.96788,
    "sequence": 19
  },
  {
    "name": "Wheldrake Wenlock Arms",
    "lat": 53.896357,
    "lon": -0.96396,
    "sequence": 20
  },
  {
    "name": "Beck Lane",
    "lat": 53.897002,
    "lon": -0.958451,
    "sequence": 21
  },
  {
    "name": "Derwent Park",
    "lat": 53.897341,
    "lon": -0.95619,
    "sequence": 22
  },
  {
    "name": "Wheldrake Ings",
    "lat": 53.893423,
    "lon": -0.951068,
    "sequence": 23
  },
  {
    "name": "Thorganby Jefferson Arms",
    "lat": 53.869104,
    "lon": -0.950444,
    "sequence": 24
  },
  {
    "name": "Old Post Office",
    "lat": 53.863496,
    "lon": -0.952516,
    "sequence": 25
  },
  {
    "name": "Old Station House",
    "lat": 53.86013,
    "lon": -0.970755,
    "sequence": 26
  },
  {
    "name": "Bonby Lane Cottage",
    "lat": 53.846454,
    "lon": -0.991413,
    "sequence": 27
  },
  {
    "name": "Skipwith Village Green",
    "lat": 53.838825,
    "lon": -0.991596,
    "sequence": 28
  },
  {
    "name": "Plantation House",
    "lat": 53.834563,
    "lon": -0.979739,
    "sequence": 29
  },
  {
    "name": "Village Green",
    "lat": 53.825578,
    "lon": -0.965434,
    "sequence": 30
  },
  {
    "name": "Seven Houses",
    "lat": 53.823393,
    "lon": -0.969574,
    "sequence": 31
  },
  {
    "name": "North Duffield Post Office",
    "lat": 53.825131,
    "lon": -0.960538,
    "sequence": 32
  }
]