[
  {
    "name": "St Thomas Street",
    "lat": 54.283553757,
    "lon": -0.400073572,
    "sequence": 1
  },
  {
    "name": "Scarborough, Castle Road Stop G",
    "lat": 54.285078182,
    "lon": -0.402060129,
    "sequence": 2
  },
  {
    "name": "Aberdeen Walk Stop J",
    "lat": 54.282813076,
    "lon": -0.403189911,
    "sequence": 3
  },
  {
    "name": "Westborough",
    "lat": 54.280706327,
    "lon": -0.404285183,
    "sequence": 4
  },
  {
    "name": "Railway Station",
    "lat": 54.280059197,
    "lon": -0.405646541,
    "sequence": 5
  },
  {
    "name": "Falsgrave Road",
    "lat": 54.276791321,
    "lon": -0.413436906,
    "sequence": 6
  },
  {
    "name": "Park Road Junction",
    "lat": 54.276571629,
    "lon": -0.41943137,
    "sequence": 7
  },
  {
    "name": "Stepney Avenue",
    "lat": 54.276809571,
    "lon": -0.423051004,
    "sequence": 8
  },
  {
    "name": "Falsgrave, Raincliffe Avenue",
    "lat": 54.276802792,
    "lon": -0.426660648,
    "sequence": 9
  },
  {
    "name": "Falsgrave, Sandy Bed Lane End",
    "lat": 54.275790101,
    "lon": -0.429648099,
    "sequence": 10
  },
  {
    "name": "Falsgrave, Catholic School",
    "lat": 54.273988915,
    "lon": -0.428687595,
    "sequence": 11
  },
  {
    "name": "Falsgrave, Montgomery Court",
    "lat": 54.272803177,
    "lon": -0.426674787,
    "sequence": 12
  },
  {
    "name": "Evelyn Drive",
    "lat": 54.274181247,
    "lon": -0.425516508,
    "sequence": 13
  },
  {
    "name": "Falsgrave, Evelyn Drive",
    "lat": 54.275384145,
    "lon": -0.426776127,
    "sequence": 14
  },
  {
    "name": "Falsgrave, Sandybed Crescent",
    "lat": 54.27591356,
    "lon": -0.42601874,
    "sequence": 15
  },
  {
    "name": "Falsgrave, Sandybed Crescent",
    "lat": 54.275193686,
    "lon": -0.423204855,
    "sequence": 16
  },
  {
    "name": "Falsgrave, Evelyn Drive",
    "lat": 54.273737549,
    "lon": -0.423890122,
    "sequence": 17
  },
  {
    "name": "Springhill Lane",
    "lat": 54.27246541,
    "lon": -0.423524014,
    "sequence": 18
  },
  {
    "name": "Falsgrave, Row Brown Court",
    "lat": 54.271951283,
    "lon": -0.426139017,
    "sequence": 19
  },
  {
    "name": "Falsgrave, Catholic School",
    "lat": 54.27379067,
    "lon": -0.428649063,
    "sequence": 20
  },
  {
    "name": "Falsgrave, Sandy Bed Lane End",
    "lat": 54.275919273,
    "lon": -0.429904286,
    "sequence": 21
  },
  {
    "name": "Falsgrave, Raincliffe Avenue",
    "lat": 54.277015199,
    "lon": -0.42640681,
    "sequence": 22
  },
  {
    "name": "Stepney Avenue",
    "lat": 54.276695742,
    "lon": -0.422594579,
    "sequence": 23
  },
  {
    "name": "Falsgrave, Park Road Junction",
    "lat": 54.276604655,
    "lon": -0.419756639,
    "sequence": 24
  },
  {
    "name": "Falsgrave Road",
    "lat": 54.276964234,
    "lon": -0.413599213,
    "sequence": 25
  },
  {
    "name": "West Square",
    "lat": 54.279942353,
    "lon": -0.406326905,
    "sequence": 26
  },
  {
    "name": "Scarborough, Victoria Street",
    "lat": 54.283305019,
    "lon": -0.405044995,
    "sequence": 27
  },
  {
    "name": "Scarborough, Castle Road",
    "lat": 54.285048027,
    "lon": -0.402273909,
    "sequence": 28
  },
  {
    "name": "Scarborough, Castle Street Stop X",
    "lat": 54.285704328,
    "lon": -0.40025139,
    "sequence": 29
  },
  {
    "name": "Queen Street",
    "lat": 54.283602801,
    "lon": -0.398351163,
    "sequence": 30
  },
  {
    "name": "Newcastle Packet",
    "lat": 54.284105606,
    "lon": -0.391557071,
    "sequence": 31
  },
  {
    "name": "West Pier",
    "lat": 54.283928168,
    "lon": -0.387692804,
    "sequence": 32
  },
  {
    "name": "Newcastle Packet",
    "lat": 54.283876126,
    "lon": -0.391873247,
    "sequence": 33
  },
  {
    "name": "Foreshore Road",
    "lat": 54.283519889,
    "lon": -0.393469374,
    "sequence": 34
  },
  {
    "name": "St Nicholas Gardens",
    "lat": 54.281643553,
    "lon": -0.396412422,
    "sequence": 35
  },
  {
    "name": "Aquarium Top Stop Y",
    "lat": 54.278893077,
    "lon": -0.39904072,
    "sequence": 36
  },
  {
    "name": "Harcourt Place Stop X",
    "lat": 54.281101388,
    "lon": -0.399051564,
    "sequence": 37
  },
  {
    "name": "St Thomas Street",
    "lat": 54.283553757,
    "lon": -0.400073572,
    "sequence": 38
  }
]