[
  {
    "name": "Scalby Mills, Sealife",
    "lat": 54.302496084,
    "lon": -0.410050474,
    "sequence": 1
  },
  {
    "name": "Scalby Mills Road",
    "lat": 54.300224134,
    "lon": -0.419620588,
    "sequence": 2
  },
  {
    "name": "Cross Lane",
    "lat": 54.297685521,
    "lon": -0.417950622,
    "sequence": 3
  },
  {
    "name": "Alpamare",
    "lat": 54.295461601,
    "lon": -0.416660154,
    "sequence": 4
  },
  {
    "name": "Weydale Avenue",
    "lat": 54.294423046,
    "lon": -0.415233038,
    "sequence": 5
  },
  {
    "name": "Peasholm Gap",
    "lat": 54.291993971,
    "lon": -0.408919197,
    "sequence": 6
  },
  {
    "name": "Peasholm Park",
    "lat": 54.290152841,
    "lon": -0.407668854,
    "sequence": 7
  },
  {
    "name": "Woodall Avenue",
    "lat": 54.289604648,
    "lon": -0.404955228,
    "sequence": 8
  },
  {
    "name": "Trafalgar Square",
    "lat": 54.288347053,
    "lon": -0.402975849,
    "sequence": 9
  },
  {
    "name": "Cricket Ground",
    "lat": 54.288329086,
    "lon": -0.402976544,
    "sequence": 10
  },
  {
    "name": "Trafalgar Sq",
    "lat": 54.287944855,
    "lon": -0.402469057,
    "sequence": 11
  },
  {
    "name": "North Marine Road",
    "lat": 54.285661015,
    "lon": -0.401051916,
    "sequence": 12
  },
  {
    "name": "Scarborough, Castle Street Stop X",
    "lat": 54.285704328,
    "lon": -0.40025139,
    "sequence": 13
  },
  {
    "name": "Queen Street",
    "lat": 54.283602801,
    "lon": -0.398351163,
    "sequence": 14
  },
  {
    "name": "St Thomas Street Stop C",
    "lat": 54.283471478,
    "lon": -0.399969229,
    "sequence": 15
  },
  {
    "name": "Castle Road Stop F",
    "lat": 54.285212729,
    "lon": -0.401666102,
    "sequence": 16
  },
  {
    "name": "Aberdeen Walk Stop K",
    "lat": 54.282684458,
    "lon": -0.402979827,
    "sequence": 17
  },
  {
    "name": "Scarborough Railway Station",
    "lat": 54.279962405,
    "lon": -0.405803881,
    "sequence": 18
  }
]