[
  {
    "name": "Holme on Spalding Moor Beacon View",
    "lat": 53.834963,
    "lon": -0.765025,
    "sequence": 1
  },
  {
    "name": "Little End",
    "lat": 53.831526,
    "lon": -0.765506,
    "sequence": 2
  },
  {
    "name": "Port Royal",
    "lat": 53.828861,
    "lon": -0.76604,
    "sequence": 3
  },
  {
    "name": "Holme on Spalding Moor Back Lane",
    "lat": 53.828767,
    "lon": -0.76738,
    "sequence": 4
  },
  {
    "name": "Springfield",
    "lat": 53.832229,
    "lon": -0.778021,
    "sequence": 5
  },
  {
    "name": "Runner End",
    "lat": 53.83453,
    "lon": -0.778912,
    "sequence": 6
  },
  {
    "name": "Holme on Spalding Moor",
    "lat": 53.836456,
    "lon": -0.771242,
    "sequence": 7
  },
  {
    "name": "Holme on Spalding Moor Village Hall",
    "lat": 53.836614,
    "lon": -0.767362,
    "sequence": 8
  },
  {
    "name": "Stray Farm",
    "lat": 53.848829,
    "lon": -0.715866,
    "sequence": 9
  },
  {
    "name": "Holme Road",
    "lat": 53.861687,
    "lon": -0.679054,
    "sequence": 10
  },
  {
    "name": "Market Weighton (Griffin)",
    "lat": 53.865028,
    "lon": -0.668213,
    "sequence": 11
  }
]