[
  {
    "name": "Bridlington Bus Station",
    "lat": 54.08386793,
    "lon": -0.189665722,
    "sequence": 1
  },
  {
    "name": "Bridlington Promenade",
    "lat": 54.085165905,
    "lon": -0.186918394,
    "sequence": 2
  },
  {
    "name": "Bridlington Flamborough Rd",
    "lat": 54.087112914,
    "lon": -0.185488027,
    "sequence": 3
  },
  {
    "name": "Bridlington Flamborough Rd",
    "lat": 54.089735266,
    "lon": -0.185924047,
    "sequence": 4
  },
  {
    "name": "Bridlington Fortyfoot",
    "lat": 54.093465513,
    "lon": -0.187703343,
    "sequence": 5
  },
  {
    "name": "Bridlington Fortyfoot",
    "lat": 54.096095227,
    "lon": -0.18803219,
    "sequence": 6
  },
  {
    "name": "Bridlington Marton Road",
    "lat": 54.098295284,
    "lon": -0.191469109,
    "sequence": 7
  },
  {
    "name": "Bridlington Bempton Lane",
    "lat": 54.098416223,
    "lon": -0.195333139,
    "sequence": 8
  },
  {
    "name": "Bempton Lane",
    "lat": 54.101141707,
    "lon": -0.196056002,
    "sequence": 9
  },
  {
    "name": "Bridlington Bempton Lane",
    "lat": 54.106513239,
    "lon": -0.197000659,
    "sequence": 10
  },
  {
    "name": "Bempton The Green",
    "lat": 54.130156111,
    "lon": -0.17923001,
    "sequence": 11
  },
  {
    "name": "Bempton Garage",
    "lat": 54.132784679,
    "lon": -0.184839293,
    "sequence": 12
  },
  {
    "name": "Buckton Main Street",
    "lat": 54.135325498,
    "lon": -0.188218244,
    "sequence": 13
  },
  {
    "name": "Speeton (Shelter)",
    "lat": 54.152299661,
    "lon": -0.242406344,
    "sequence": 14
  },
  {
    "name": "Grange",
    "lat": 54.154812623,
    "lon": -0.256358389,
    "sequence": 15
  },
  {
    "name": "The Dotterel",
    "lat": 54.155925776,
    "lon": -0.26871648,
    "sequence": 16
  },
  {
    "name": "Reighton (Watson`s Lane)",
    "lat": 54.16318404,
    "lon": -0.272150895,
    "sequence": 17
  },
  {
    "name": "Arie Hill",
    "lat": 54.179819829,
    "lon": -0.290259268,
    "sequence": 18
  },
  {
    "name": "Primrose Valley Holiday Village (outside)",
    "lat": 54.183924846,
    "lon": -0.293231509,
    "sequence": 19
  },
  {
    "name": "Primrose Valley Garage",
    "lat": 54.185930499,
    "lon": -0.297761922,
    "sequence": 20
  },
  {
    "name": "Sheep Dyke",
    "lat": 54.181912431,
    "lon": -0.313726194,
    "sequence": 21
  },
  {
    "name": "Horseshoe Inn",
    "lat": 54.181834852,
    "lon": -0.316533664,
    "sequence": 22
  },
  {
    "name": "Hungate Court",
    "lat": 54.180483483,
    "lon": -0.319306048,
    "sequence": 23
  },
  {
    "name": "Hunmanby (Church)",
    "lat": 54.180584147,
    "lon": -0.322238895,
    "sequence": 24
  },
  {
    "name": "Muston Road End",
    "lat": 54.182438467,
    "lon": -0.325014144,
    "sequence": 25
  },
  {
    "name": "Wold View",
    "lat": 54.197803572,
    "lon": -0.32269117,
    "sequence": 26
  },
  {
    "name": "Muston (Ship Inn)",
    "lat": 54.200753615,
    "lon": -0.321529172,
    "sequence": 27
  },
  {
    "name": "Ship Inn",
    "lat": 54.200881535,
    "lon": -0.32103339,
    "sequence": 28
  },
  {
    "name": "Greame Cottage",
    "lat": 54.201313831,
    "lon": -0.316585112,
    "sequence": 29
  },
  {
    "name": "Pond Farm",
    "lat": 54.201624025,
    "lon": -0.31177376,
    "sequence": 30
  },
  {
    "name": "Mill Farm",
    "lat": 54.200455661,
    "lon": -0.30538236,
    "sequence": 31
  },
  {
    "name": "Secondary School",
    "lat": 54.205170477,
    "lon": -0.301892849,
    "sequence": 32
  },
  {
    "name": "Grange Avenue",
    "lat": 54.20699577,
    "lon": -0.300023969,
    "sequence": 33
  },
  {
    "name": "Wharfedale",
    "lat": 54.208913459,
    "lon": -0.297062397,
    "sequence": 34
  },
  {
    "name": "Filey Bus Station",
    "lat": 54.209839531,
    "lon": -0.291365857,
    "sequence": 35
  },
  {
    "name": "The Croft",
    "lat": 54.213008837,
    "lon": -0.291741114,
    "sequence": 36
  },
  {
    "name": "Grove Road",
    "lat": 54.213661515,
    "lon": -0.295302791,
    "sequence": 37
  },
  {
    "name": "Rowan Avenue",
    "lat": 54.214274261,
    "lon": -0.298590169,
    "sequence": 38
  },
  {
    "name": "Copse Hill",
    "lat": 54.21575604,
    "lon": -0.303359248,
    "sequence": 39
  },
  {
    "name": "Filey Bird Centre",
    "lat": 54.218414129,
    "lon": -0.312377271,
    "sequence": 40
  },
  {
    "name": "Muston Crossing",
    "lat": 54.219026855,
    "lon": -0.316340137,
    "sequence": 41
  },
  {
    "name": "Carless Lane",
    "lat": 54.222242809,
    "lon": -0.324584419,
    "sequence": 42
  },
  {
    "name": "Gristhorpe (Filey Road)",
    "lat": 54.223144347,
    "lon": -0.330606974,
    "sequence": 43
  },
  {
    "name": "Lebberston Touring Park",
    "lat": 54.225095403,
    "lon": -0.343674709,
    "sequence": 44
  },
  {
    "name": "Lebberston (Ox Inn)",
    "lat": 54.226650592,
    "lon": -0.347616357,
    "sequence": 45
  },
  {
    "name": "Killerby Lane",
    "lat": 54.229396245,
    "lon": -0.36601131,
    "sequence": 46
  },
  {
    "name": "Cayton (Station Road)",
    "lat": 54.232550617,
    "lon": -0.376317183,
    "sequence": 47
  },
  {
    "name": "Beck Hole",
    "lat": 54.233836596,
    "lon": -0.379703586,
    "sequence": 48
  },
  {
    "name": "Cayton Main Street",
    "lat": 54.235334375,
    "lon": -0.384815764,
    "sequence": 49
  },
  {
    "name": "Carr House Lane",
    "lat": 54.235587435,
    "lon": -0.388948724,
    "sequence": 50
  },
  {
    "name": "Havers Hill",
    "lat": 54.236170898,
    "lon": -0.392255659,
    "sequence": 51
  },
  {
    "name": "Pindar School",
    "lat": 54.238387479,
    "lon": -0.395361224,
    "sequence": 52
  },
  {
    "name": "Eastfield (Eastway/Overdale)",
    "lat": 54.240447415,
    "lon": -0.395480785,
    "sequence": 53
  },
  {
    "name": "Harvest Way",
    "lat": 54.243130974,
    "lon": -0.389790473,
    "sequence": 54
  },
  {
    "name": "Eastway Overdale",
    "lat": 54.244686798,
    "lon": -0.386491615,
    "sequence": 55
  },
  {
    "name": "Priory Place",
    "lat": 54.245267,
    "lon": -0.382156,
    "sequence": 56
  },
  {
    "name": "Priory Stores",
    "lat": 54.246419,
    "lon": -0.381636,
    "sequence": 57
  },
  {
    "name": "Bradworth Drive",
    "lat": 54.247708,
    "lon": -0.377871,
    "sequence": 58
  },
  {
    "name": "Osgodby Hill Top",
    "lat": 54.2496,
    "lon": -0.376185,
    "sequence": 59
  },
  {
    "name": "Osgodby Hill",
    "lat": 54.250729,
    "lon": -0.375895,
    "sequence": 60
  },
  {
    "name": "Sea View Drive",
    "lat": 54.254027,
    "lon": -0.379235,
    "sequence": 61
  },
  {
    "name": "Sea View",
    "lat": 54.255897,
    "lon": -0.3826,
    "sequence": 62
  },
  {
    "name": "Cornelian Drive",
    "lat": 54.257681,
    "lon": -0.386276,
    "sequence": 63
  },
  {
    "name": "Wheatcroft Garage",
    "lat": 54.258931,
    "lon": -0.387655,
    "sequence": 64
  },
  {
    "name": "Wheatcroft Avenue",
    "lat": 54.263176,
    "lon": -0.393201,
    "sequence": 65
  },
  {
    "name": "Holbeck Road",
    "lat": 54.266786,
    "lon": -0.398404,
    "sequence": 66
  },
  {
    "name": "Avenue Victoria",
    "lat": 54.270363,
    "lon": -0.401767,
    "sequence": 67
  },
  {
    "name": "St Andrews Church",
    "lat": 54.274232,
    "lon": -0.402754,
    "sequence": 68
  },
  {
    "name": "Valley Bridge",
    "lat": 54.27847,
    "lon": -0.403742,
    "sequence": 69
  },
  {
    "name": "Railway Station",
    "lat": 54.279795773,
    "lon": -0.406117519,
    "sequence": 70
  },
  {
    "name": "Falsgrave Road",
    "lat": 54.276791321,
    "lon": -0.413436906,
    "sequence": 71
  },
  {
    "name": "Westbourne Park",
    "lat": 54.274518,
    "lon": -0.416197,
    "sequence": 72
  },
  {
    "name": "Opp Coventry Uni",
    "lat": 54.274660499,
    "lon": -0.410662115,
    "sequence": 73
  },
  {
    "name": "Scarborough UTC",
    "lat": 54.271562943,
    "lon": -0.412286306,
    "sequence": 74
  }
]