[
  {
    "name": "York Railway Station",
    "lat": 53.958127107,
    "lon": -1.09212696,
    "sequence": 1
  },
  {
    "name": "Rougier Street Stop C",
    "lat": 53.958441,
    "lon": -1.087304,
    "sequence": 2
  },
  {
    "name": "York, Micklegate, CK",
    "lat": 53.957306,
    "lon": -1.085805,
    "sequence": 3
  },
  {
    "name": "York, Clifford Street, TG",
    "lat": 53.956374,
    "lon": -1.081436,
    "sequence": 4
  },
  {
    "name": "York Piccadilly",
    "lat": 53.95677,
    "lon": -1.077907,
    "sequence": 5
  },
  {
    "name": "York Stonebow",
    "lat": 53.959089548,
    "lon": -1.078054,
    "sequence": 6
  },
  {
    "name": "York, Peasholme Green, adj Quilt Museum",
    "lat": 53.960552661,
    "lon": -1.075461172,
    "sequence": 7
  },
  {
    "name": "Morrison's",
    "lat": 53.959734424,
    "lon": -1.06959621,
    "sequence": 8
  },
  {
    "name": "James Street",
    "lat": 53.955656453,
    "lon": -1.067614392,
    "sequence": 9
  },
  {
    "name": "Nicholas Street",
    "lat": 53.954521,
    "lon": -1.064912,
    "sequence": 10
  },
  {
    "name": "The Boulevard",
    "lat": 53.954474,
    "lon": -1.061256,
    "sequence": 11
  },
  {
    "name": "Matmer House",
    "lat": 53.954071,
    "lon": -1.057988,
    "sequence": 12
  },
  {
    "name": "Milson Grove",
    "lat": 53.953926,
    "lon": -1.052064,
    "sequence": 13
  },
  {
    "name": "Windmill Lane",
    "lat": 53.953869,
    "lon": -1.044826,
    "sequence": 14
  },
  {
    "name": "Archbishop Holgate's School",
    "lat": 53.953854,
    "lon": -1.040682,
    "sequence": 15
  },
  {
    "name": "Osbaldwick Pinelands Way",
    "lat": 53.954077,
    "lon": -1.034886,
    "sequence": 16
  },
  {
    "name": "Canham Grove",
    "lat": 53.95371,
    "lon": -1.031724,
    "sequence": 17
  },
  {
    "name": "B&Q",
    "lat": 53.953943,
    "lon": -1.027254,
    "sequence": 18
  },
  {
    "name": "Grimston Lodge",
    "lat": 53.955505,
    "lon": -1.020345,
    "sequence": 19
  },
  {
    "name": "Grimston Court",
    "lat": 53.957235,
    "lon": -1.004424,
    "sequence": 20
  },
  {
    "name": "The Windmill",
    "lat": 53.955448,
    "lon": -0.977843,
    "sequence": 21
  },
  {
    "name": "Four Lane Ends",
    "lat": 53.954567,
    "lon": -0.970458,
    "sequence": 22
  },
  {
    "name": "Scoreby Lodge",
    "lat": 53.953080572,
    "lon": -0.958623367,
    "sequence": 23
  },
  {
    "name": "Kexby Bridge",
    "lat": 53.950122,
    "lon": -0.93386,
    "sequence": 24
  },
  {
    "name": "Catton Lane End",
    "lat": 53.953112,
    "lon": -0.918468,
    "sequence": 25
  },
  {
    "name": "Willberfoss Main Street",
    "lat": 53.948794046,
    "lon": -0.896287643,
    "sequence": 26
  },
  {
    "name": "Wilberfoss Post Office",
    "lat": 53.948845062,
    "lon": -0.89109035,
    "sequence": 27
  },
  {
    "name": "Wilberfoss Main Street",
    "lat": 53.948683806,
    "lon": -0.888230009,
    "sequence": 28
  },
  {
    "name": "Wilberfoss Main Street",
    "lat": 53.947613394,
    "lon": -0.886201486,
    "sequence": 29
  },
  {
    "name": "Wilberfoss A1079",
    "lat": 53.946554,
    "lon": -0.885316,
    "sequence": 30
  },
  {
    "name": "A1079 Wilberfoss",
    "lat": 53.942941,
    "lon": -0.86716,
    "sequence": 31
  },
  {
    "name": "A1079 Near Wilberfoss",
    "lat": 53.936737,
    "lon": -0.855583,
    "sequence": 32
  },
  {
    "name": "A1079 Barmby Moor",
    "lat": 53.932987,
    "lon": -0.838444,
    "sequence": 33
  },
  {
    "name": "Barmby Moor Main Street",
    "lat": 53.930891083,
    "lon": -0.821702171,
    "sequence": 34
  },
  {
    "name": "Barmby Moor Main Street",
    "lat": 53.931377259,
    "lon": -0.818124392,
    "sequence": 35
  },
  {
    "name": "Barmby Moor",
    "lat": 53.931987955,
    "lon": -0.81533503,
    "sequence": 36
  },
  {
    "name": "Pocklington Barmby Road",
    "lat": 53.931315619,
    "lon": -0.787587695,
    "sequence": 37
  },
  {
    "name": "Pocklington Barmby Road",
    "lat": 53.931828608,
    "lon": -0.784983497,
    "sequence": 38
  },
  {
    "name": "Pocklington George Street",
    "lat": 53.931409553,
    "lon": -0.780883242,
    "sequence": 39
  },
  {
    "name": "Pocklington EY Depot",
    "lat": 53.929514,
    "lon": -0.780086,
    "sequence": 40
  },
  {
    "name": "Pocklington The Balk",
    "lat": 53.926119,
    "lon": -0.775098,
    "sequence": 41
  },
  {
    "name": "The Balk Pocklington",
    "lat": 53.92296,
    "lon": -0.772023,
    "sequence": 42
  },
  {
    "name": "Pocklington The Balk",
    "lat": 53.91352,
    "lon": -0.77093,
    "sequence": 43
  },
  {
    "name": "Hayton (Green)",
    "lat": 53.900729774,
    "lon": -0.752645275,
    "sequence": 44
  },
  {
    "name": "Thorpe le Street Lane End",
    "lat": 53.886079529,
    "lon": -0.72619688,
    "sequence": 45
  },
  {
    "name": "Shiptonthorpe (Crown)",
    "lat": 53.877626052,
    "lon": -0.705628885,
    "sequence": 46
  },
  {
    "name": "Market Weighton York Rd",
    "lat": 53.869895192,
    "lon": -0.682430493,
    "sequence": 47
  },
  {
    "name": "Market Weighton York Rd",
    "lat": 53.867016946,
    "lon": -0.672468456,
    "sequence": 48
  },
  {
    "name": "Market Weighton (Griffin)",
    "lat": 53.865028,
    "lon": -0.668213,
    "sequence": 49
  },
  {
    "name": "Market Weighton Southgate",
    "lat": 53.862018,
    "lon": -0.663457,
    "sequence": 50
  },
  {
    "name": "Market Weighton Sancton Road",
    "lat": 53.860162,
    "lon": -0.659001,
    "sequence": 51
  },
  {
    "name": "Arras Cottages",
    "lat": 53.860298853,
    "lon": -0.593440886,
    "sequence": 52
  },
  {
    "name": "Bishop Burton A1079",
    "lat": 53.858098046,
    "lon": -0.558516545,
    "sequence": 53
  },
  {
    "name": "A1079 York Road",
    "lat": 53.85592941,
    "lon": -0.541212653,
    "sequence": 54
  },
  {
    "name": "Bishop Burton (Altisidora)",
    "lat": 53.845791156,
    "lon": -0.49758979,
    "sequence": 55
  },
  {
    "name": "Bishop Burton A1079",
    "lat": 53.843303623,
    "lon": -0.479226334,
    "sequence": 56
  },
  {
    "name": "Beverley Racecourse",
    "lat": 53.843180787,
    "lon": -0.456233537,
    "sequence": 57
  },
  {
    "name": "Beverley York Road",
    "lat": 53.844441415,
    "lon": -0.438342043,
    "sequence": 58
  },
  {
    "name": "Beverley Bus Station",
    "lat": 53.84405,
    "lon": -0.431745,
    "sequence": 59
  },
  {
    "name": "Beverley New Walkergate",
    "lat": 53.84214,
    "lon": -0.426618,
    "sequence": 60
  },
  {
    "name": "Beverley Lord Roberts Rd",
    "lat": 53.840698571,
    "lon": -0.427066917,
    "sequence": 61
  },
  {
    "name": "Beverley Lairgate",
    "lat": 53.839714485,
    "lon": -0.430857853,
    "sequence": 62
  },
  {
    "name": "Beverley Admiral Walker Rd",
    "lat": 53.837408485,
    "lon": -0.433238927,
    "sequence": 63
  },
  {
    "name": "Beverley Victoria Road",
    "lat": 53.830255765,
    "lon": -0.437562979,
    "sequence": 64
  },
  {
    "name": "Beverley Victoria Road",
    "lat": 53.82703359,
    "lon": -0.440007564,
    "sequence": 65
  },
  {
    "name": "Beverley (Victoria Road opp Morrisons)",
    "lat": 53.822251021,
    "lon": -0.44135503,
    "sequence": 66
  },
  {
    "name": "Evergreen Drive",
    "lat": 53.790538,
    "lon": -0.363773,
    "sequence": 67
  },
  {
    "name": "Beverley Road (Tesco)",
    "lat": 53.787379,
    "lon": -0.362165,
    "sequence": 68
  },
  {
    "name": "Emmott Road",
    "lat": 53.784413,
    "lon": -0.360231,
    "sequence": 69
  },
  {
    "name": "Sutton Road",
    "lat": 53.781172,
    "lon": -0.357869,
    "sequence": 70
  },
  {
    "name": "Riversdale Road",
    "lat": 53.778517,
    "lon": -0.356971,
    "sequence": 71
  },
  {
    "name": "Etherington Road",
    "lat": 53.776653,
    "lon": -0.356725,
    "sequence": 72
  },
  {
    "name": "Endsleigh College",
    "lat": 53.774454,
    "lon": -0.355673,
    "sequence": 73
  },
  {
    "name": "Wellesley Avenue",
    "lat": 53.771701,
    "lon": -0.354824,
    "sequence": 74
  },
  {
    "name": "Beresford Avenue",
    "lat": 53.770101,
    "lon": -0.354189,
    "sequence": 75
  },
  {
    "name": "Beverley Road (Haworth Arms)",
    "lat": 53.767892,
    "lon": -0.353699,
    "sequence": 76
  },
  {
    "name": "Washington Street",
    "lat": 53.765647,
    "lon": -0.352573,
    "sequence": 77
  },
  {
    "name": "Ryde Street",
    "lat": 53.763788,
    "lon": -0.351401,
    "sequence": 78
  },
  {
    "name": "Melwood Grove",
    "lat": 53.761042,
    "lon": -0.349749,
    "sequence": 79
  },
  {
    "name": "Epworth Street",
    "lat": 53.759649,
    "lon": -0.349182,
    "sequence": 80
  },
  {
    "name": "Temple Street",
    "lat": 53.757389,
    "lon": -0.348861,
    "sequence": 81
  },
  {
    "name": "St Hilda Street",
    "lat": 53.755766,
    "lon": -0.348515,
    "sequence": 82
  },
  {
    "name": "Somerscales Street",
    "lat": 53.753684,
    "lon": -0.348096,
    "sequence": 83
  },
  {
    "name": "Harley Street",
    "lat": 53.751827,
    "lon": -0.347714,
    "sequence": 84
  },
  {
    "name": "College Street",
    "lat": 53.750556,
    "lon": -0.347476,
    "sequence": 85
  },
  {
    "name": "Prospect Street A",
    "lat": 53.747308113,
    "lon": -0.344676269,
    "sequence": 86
  },
  {
    "name": "Bond Street A",
    "lat": 53.746706,
    "lon": -0.339453,
    "sequence": 87
  },
  {
    "name": "Hull Interchange",
    "lat": 53.744578,
    "lon": -0.347453,
    "sequence": 88
  }
]