[
  {
    "name": "Askham Bryan College",
    "lat": 53.922635467,
    "lon": -1.156563239,
    "sequence": 1
  },
  {
    "name": "York College",
    "lat": 53.930782703,
    "lon": -1.114652324,
    "sequence": 2
  },
  {
    "name": "Old Moor Lane",
    "lat": 53.9338758,
    "lon": -1.112378283,
    "sequence": 3
  },
  {
    "name": "The Horseshoe",
    "lat": 53.935840478,
    "lon": -1.11066104,
    "sequence": 4
  },
  {
    "name": "Slingsby Grove",
    "lat": 53.938385309,
    "lon": -1.108398111,
    "sequence": 5
  },
  {
    "name": "Cross Keys",
    "lat": 53.940518522,
    "lon": -1.106387446,
    "sequence": 6
  },
  {
    "name": "Nelson's Lane",
    "lat": 53.942921866,
    "lon": -1.104446964,
    "sequence": 7
  },
  {
    "name": "Pulleyn Drive",
    "lat": 53.945808407,
    "lon": -1.102221638,
    "sequence": 8
  },
  {
    "name": "Mount Vale",
    "lat": 53.949901133,
    "lon": -1.099040553,
    "sequence": 9
  },
  {
    "name": "The Mount",
    "lat": 53.952627462,
    "lon": -1.095842675,
    "sequence": 10
  },
  {
    "name": "Blossom Street",
    "lat": 53.954521746,
    "lon": -1.09316533,
    "sequence": 11
  },
  {
    "name": "Rail Station",
    "lat": 53.957849098,
    "lon": -1.092209201,
    "sequence": 12
  },
  {
    "name": "Station Avenue",
    "lat": 53.959349,
    "lon": -1.089692,
    "sequence": 13
  },
  {
    "name": "Exhibition Square",
    "lat": 53.962437,
    "lon": -1.085616,
    "sequence": 14
  },
  {
    "name": "Ingram House",
    "lat": 53.96522,
    "lon": -1.089915,
    "sequence": 15
  },
  {
    "name": "Clifton Methodist Church",
    "lat": 53.967523,
    "lon": -1.093752,
    "sequence": 16
  },
  {
    "name": "Clifton Green",
    "lat": 53.969476,
    "lon": -1.096484,
    "sequence": 17
  },
  {
    "name": "Ouse Lea",
    "lat": 53.971459,
    "lon": -1.100893,
    "sequence": 18
  },
  {
    "name": "Clifton Park",
    "lat": 53.974907,
    "lon": -1.106445,
    "sequence": 19
  },
  {
    "name": "East Cottages",
    "lat": 53.977876,
    "lon": -1.110422,
    "sequence": 20
  },
  {
    "name": "Alwyne Drive",
    "lat": 53.979544,
    "lon": -1.113543,
    "sequence": 21
  },
  {
    "name": "Howard Drive",
    "lat": 53.983881,
    "lon": -1.119063,
    "sequence": 22
  },
  {
    "name": "Manor Lane",
    "lat": 53.985696,
    "lon": -1.121556,
    "sequence": 23
  },
  {
    "name": "Riverside Farm",
    "lat": 53.988659,
    "lon": -1.125993,
    "sequence": 24
  },
  {
    "name": "Fairfield Manor",
    "lat": 53.994406,
    "lon": -1.131425,
    "sequence": 25
  },
  {
    "name": "Fairfield Cottages",
    "lat": 53.996382,
    "lon": -1.133733,
    "sequence": 26
  },
  {
    "name": "Blacksmith's Arms",
    "lat": 53.999387,
    "lon": -1.136676,
    "sequence": 27
  },
  {
    "name": "South Garth",
    "lat": 54.018137,
    "lon": -1.157121,
    "sequence": 28
  },
  {
    "name": "Shipton Dawnay Arms",
    "lat": 54.0217,
    "lon": -1.157705,
    "sequence": 29
  },
  {
    "name": "Shipton Church",
    "lat": 54.022877,
    "lon": -1.157666,
    "sequence": 30
  },
  {
    "name": "Newton Sidings / Moor Lane",
    "lat": 54.040105036,
    "lon": -1.189086867,
    "sequence": 31
  },
  {
    "name": "opp Newton Park",
    "lat": 54.033718454,
    "lon": -1.21644263,
    "sequence": 32
  },
  {
    "name": "Newton Village Hall",
    "lat": 54.033650048,
    "lon": -1.218582801,
    "sequence": 33
  },
  {
    "name": "Linton Woods",
    "lat": 54.038576606,
    "lon": -1.235331577,
    "sequence": 34
  },
  {
    "name": "Linton Meadows",
    "lat": 54.039331423,
    "lon": -1.240982898,
    "sequence": 35
  },
  {
    "name": "RAF Linton",
    "lat": 54.040093419,
    "lon": -1.244954561,
    "sequence": 36
  },
  {
    "name": "Linton Half Moon St",
    "lat": 54.040467103,
    "lon": -1.250093917,
    "sequence": 37
  },
  {
    "name": "Hunters Lodge Farm",
    "lat": 54.041462135,
    "lon": -1.274585572,
    "sequence": 38
  },
  {
    "name": "The Aldwark Arms",
    "lat": 54.066882339,
    "lon": -1.289444195,
    "sequence": 39
  },
  {
    "name": "Flawith Alne Road",
    "lat": 54.082373897,
    "lon": -1.264120222,
    "sequence": 40
  },
  {
    "name": "Tholthorpe Green",
    "lat": 54.095951259,
    "lon": -1.276953605,
    "sequence": 41
  },
  {
    "name": "Helperby",
    "lat": 54.123425623,
    "lon": -1.330296094,
    "sequence": 42
  },
  {
    "name": "The Oak Tree",
    "lat": 54.125269711,
    "lon": -1.329876334,
    "sequence": 43
  },
  {
    "name": "Raskelf",
    "lat": 54.133147725,
    "lon": -1.248467406,
    "sequence": 44
  }
]